[{"id":"RKx6y8AO","name":"Darul Arqam","city":"Kenner","state":"Louisiana","country":"US","zip":"70065","lat":30.0316,"lng":-90.2436,"address":"4101 California Ave","phone":"5047018535","website":"HTTPS://www.darularqamfoundation.org","has_prayer_times":true,"prayer_url":"https://raw.githubusercontent.com/ahmednabulsi/weekly-scraper/refs/heads/main/prayer-times/usa/Louisiana/RKx6y8AO/prayers.json"},{"id":"wLVzbDLJ","name":"Islamic Center Of New Orleans","city":"New Orleans","state":"LA","country":"US","zip":"70116","lat":29.9686,"lng":-90.06,"address":"1911 St Claude Ave","phone":"504-701-1753","website":"-","has_prayer_times":true,"prayer_url":"https://raw.githubusercontent.com/ahmednabulsi/weekly-scraper/refs/heads/main/prayer-times/usa/LA/wLVzbDLJ/prayers.json"},{"id":"wdqr9lKb","name":"Masjid An-Noor","city":"Mandeville","state":"Louisiana","country":"US","zip":"70471","lat":30.3982,"lng":-90.0897,"address":"2235 9th St","phone":"-","website":"-","has_prayer_times":true,"prayer_url":"https://raw.githubusercontent.com/ahmednabulsi/weekly-scraper/refs/heads/main/prayer-times/usa/Louisiana/wdqr9lKb/prayers.json"},{"id":"GA6a16Le","name":"Eugene Islamic Center","city":"Eugene","state":"OR","country":"US","zip":"97402","lat":44.0497,"lng":-123.1211,"address":"1856 W Broadway","phone":"(541) 513 - 7817","website":"https://eugeneislamiccenter.com/","has_prayer_times":true,"prayer_url":"https://raw.githubusercontent.com/ahmednabulsi/weekly-scraper/refs/heads/main/prayer-times/usa/OR/GA6a16Le/prayers.json"},{"id":"eLQenkLM","name":"Al-Noor Islamic Center","city":"Seattle","state":"WA","country":"US","zip":"98118","lat":47.5417,"lng":-122.2839,"address":"6727 Martin Luther King Jr Way S","phone":"-","website":"-","has_prayer_times":true,"prayer_url":"https://raw.githubusercontent.com/ahmednabulsi/weekly-scraper/refs/heads/main/prayer-times/usa/WA/eLQenkLM/prayers.json"},{"id":"jJdG1DLP","name":"Masjid AR Rahman","city":"Seattle","state":"WA","country":"US","zip":"98118","lat":47.5236,"lng":-122.2767,"address":"8819 Renton Ave S","phone":"2067098888","website":"https://occofwa.com/","has_prayer_times":true,"prayer_url":"https://raw.githubusercontent.com/ahmednabulsi/weekly-scraper/refs/heads/main/prayer-times/usa/WA/jJdG1DLP/prayers.json"},{"id":"lJAmRjdR","name":"Masjid Jamiul Muslimeen","city":"Seattle","state":"WA","country":"US","zip":"98118","lat":47.5485,"lng":-122.2837,"address":"5945 39th Ave S","phone":"-","website":"https://chamrefugeescommunity.org","has_prayer_times":true,"prayer_url":"https://raw.githubusercontent.com/ahmednabulsi/weekly-scraper/refs/heads/main/prayer-times/usa/WA/lJAmRjdR/prayers.json"},{"id":"kK3n7pde","name":"West African Community Center","city":"Seattle","state":"Washington","country":"US","zip":"98118","lat":47.5496,"lng":-122.2775,"address":"5903 Rainier Ave S","phone":"2064580247","website":"-","has_prayer_times":true,"prayer_url":"https://raw.githubusercontent.com/ahmednabulsi/weekly-scraper/refs/heads/main/prayer-times/usa/Washington/kK3n7pde/prayers.json"},{"id":"xwLVQeKJ","name":"Abubakar Islamic Center of Seattle WA","city":"Seattle","state":"WA","country":"US","zip":"98118","lat":47.5523,"lng":-122.2889,"address":"5503 Martin Luther King Jr Way S","phone":"-","website":"-","has_prayer_times":true,"prayer_url":"https://raw.githubusercontent.com/ahmednabulsi/weekly-scraper/refs/heads/main/prayer-times/usa/WA/xwLVQeKJ/prayers.json"},{"id":"VGA60MKe","name":"OBK Islamic Center","city":"Seattle","state":"WA","country":"US","zip":"98178","lat":47.491,"lng":-122.239,"address":"12622 Renton Ave S","phone":"2064349617","website":"https://www.obkseattle.org/","has_prayer_times":true,"prayer_url":"https://raw.githubusercontent.com/ahmednabulsi/weekly-scraper/refs/heads/main/prayer-times/usa/WA/VGA60MKe/prayers.json"},{"id":"jKZpaoAX","name":"Masjid Al-Furqan (Seattle)","city":"Seattle","state":"WA","country":"US","zip":"98106","lat":47.5186,"lng":-122.3583,"address":"9401 18th Ave SW","phone":"2066934444","website":"https://ourmosque.us/","has_prayer_times":true,"prayer_url":"https://raw.githubusercontent.com/ahmednabulsi/weekly-scraper/refs/heads/main/prayer-times/usa/WA/jKZpaoAX/prayers.json"},{"id":"xwLVXMdJ","name":"Abubakr Islamic of Center WA","city":"Tukwila","state":"WA","country":"US","zip":"98168","lat":47.477,"lng":-122.2847,"address":"14101 Tukwila International Blvd","phone":"2062140200","website":"https://abubakrislamiccenter.org/","has_prayer_times":true,"prayer_url":"https://raw.githubusercontent.com/ahmednabulsi/weekly-scraper/refs/heads/main/prayer-times/usa/WA/xwLVXMdJ/prayers.json"},{"id":"PAPye4dJ","name":"High Point Masjid - West Seattle","city":"Seattle","state":"WA","country":"US","zip":"98126","lat":47.543,"lng":-122.376,"address":"6558 35th Ave SW","phone":"-","website":"-","has_prayer_times":true,"prayer_url":"https://raw.githubusercontent.com/ahmednabulsi/weekly-scraper/refs/heads/main/prayer-times/usa/WA/PAPye4dJ/prayers.json"},{"id":"E5AvJ0AX","name":"Islamic Center of Seattle","city":"SeaTac","state":"WA","country":"US","zip":"98188","lat":47.4691,"lng":-122.2929,"address":"3040 S 150th St","phone":"-","website":"http://assalammasjid.com/","has_prayer_times":true,"prayer_url":"https://raw.githubusercontent.com/ahmednabulsi/weekly-scraper/refs/heads/main/prayer-times/usa/WA/E5AvJ0AX/prayers.json"},{"id":"9L2M7yKZ","name":"Madina Mosque","city":"Renton","state":"WA","country":"US","zip":"98057","lat":47.4837,"lng":-122.2165,"address":"81 S Tobin St","phone":"-","website":"-","has_prayer_times":true,"prayer_url":"https://raw.githubusercontent.com/ahmednabulsi/weekly-scraper/refs/heads/main/prayer-times/usa/WA/9L2M7yKZ/prayers.json"},{"id":"8L7jNvK5","name":"Muslim American Youth Foundation (MAYF)","city":"Burien","state":"WA","country":"US","zip":"98148","lat":47.4628,"lng":-122.3321,"address":"125 S 156th St","phone":"-","website":"https://www.mayf.org","has_prayer_times":true,"prayer_url":"https://raw.githubusercontent.com/ahmednabulsi/weekly-scraper/refs/heads/main/prayer-times/usa/WA/8L7jNvK5/prayers.json"},{"id":"YRKxYRLO","name":"EMAS SEATTLE","city":"Seatac","state":"WA","country":"US","zip":"98188","lat":47.4551,"lng":-122.285,"address":"3730 S 166TH Street","phone":"2068493672","website":"http://www.emasseattle.org/","has_prayer_times":true,"prayer_url":"https://raw.githubusercontent.com/ahmednabulsi/weekly-scraper/refs/heads/main/prayer-times/usa/WA/YRKxYRLO/prayers.json"},{"id":"5AvPJnKX","name":"MAPS Seattle","city":"Seattle","state":"WA","country":"US","zip":"98121","lat":47.6148,"lng":-122.3405,"address":"2100 5th Ave","phone":"-","website":"-","has_prayer_times":true,"prayer_url":"https://raw.githubusercontent.com/ahmednabulsi/weekly-scraper/refs/heads/main/prayer-times/usa/WA/5AvPJnKX/prayers.json"},{"id":"xdNXMnLV","name":"Islamic Center of Eastside (ICOE)","city":"Bellevue","state":"Washington","country":"US","zip":"98007","lat":47.6102,"lng":-122.1441,"address":"14700 Main St","phone":"-","website":"HTTP://www.eastsidemosque.com","has_prayer_times":true,"prayer_url":"https://raw.githubusercontent.com/ahmednabulsi/weekly-scraper/refs/heads/main/prayer-times/usa/Washington/xdNXMnLV/prayers.json"},{"id":"RKxwXOdO","name":"Islamic House of Seattle","city":"Seattle","state":"WA","country":"US","zip":"98105","lat":47.6626,"lng":-122.3047,"address":"4625 22nd Ave NE","phone":"-","website":"https://ihseattle.org","has_prayer_times":true,"prayer_url":"https://raw.githubusercontent.com/ahmednabulsi/weekly-scraper/refs/heads/main/prayer-times/usa/WA/RKxwXOdO/prayers.json"},{"id":"aAeP3lLj","name":"Islamic Center of Eastside (ICOE North)","city":"Bellevue","state":"Washington","country":"US","zip":"98007","lat":47.6291,"lng":-122.1509,"address":"14230 NE 21st St","phone":"-","website":"https://eastsidemosque.com/","has_prayer_times":true,"prayer_url":"https://raw.githubusercontent.com/ahmednabulsi/weekly-scraper/refs/heads/main/prayer-times/usa/Washington/aAeP3lLj/prayers.json"},{"id":"QL0MGBAZ","name":"ICK","city":"Kent","state":"WA","country":"US","zip":"98031","lat":47.4142,"lng":-122.1981,"address":"20857 108th Ave SE","phone":"2532933845","website":"https://islamiccenterofkent.org","has_prayer_times":true,"prayer_url":"https://raw.githubusercontent.com/ahmednabulsi/weekly-scraper/refs/heads/main/prayer-times/usa/WA/QL0MGBAZ/prayers.json"},{"id":"Vdw3Qzde","name":"Masjid Madeena","city":"Bellevue","state":"Washington","country":"US","zip":"98008","lat":47.6177,"lng":-122.1221,"address":"827 164th Ave NE","phone":"-","website":"http://www.masjidmadeena.com","has_prayer_times":true,"prayer_url":"https://raw.githubusercontent.com/ahmednabulsi/weekly-scraper/refs/heads/main/prayer-times/usa/Washington/Vdw3Qzde/prayers.json"},{"id":"Vdwoaxde","name":"Sahaba Center","city":"Des Moines","state":"Washington","country":"US","zip":"98198","lat":47.3958,"lng":-122.2947,"address":"22862 Pacific Hwy S","phone":"-","website":"https://emananw.org/","has_prayer_times":true,"prayer_url":"https://raw.githubusercontent.com/ahmednabulsi/weekly-scraper/refs/heads/main/prayer-times/usa/Washington/Vdwoaxde/prayers.json"},{"id":"OA8mGbdp","name":"Muslim Association of Kirkland (MAK)","city":"Kirkland","state":"Washington","country":"US","zip":"98033","lat":47.6815,"lng":-122.1775,"address":"8760 122nd Ave NE","phone":"-","website":"https://makmasjid.com/","has_prayer_times":true,"prayer_url":"https://raw.githubusercontent.com/ahmednabulsi/weekly-scraper/refs/heads/main/prayer-times/usa/Washington/OA8mGbdp/prayers.json"},{"id":"6adJNqdk","name":"Masjid Al_Noor","city":"Sammamish","state":"Washington","country":"US","zip":"98075","lat":47.5912,"lng":-122.0458,"address":"22011 SE 20th St","phone":"4254409936","website":"https://smamosque.org/","has_prayer_times":true,"prayer_url":"https://raw.githubusercontent.com/ahmednabulsi/weekly-scraper/refs/heads/main/prayer-times/usa/Washington/6adJNqdk/prayers.json"},{"id":"kK3vZPde","name":"Masjid Al-Hudaa","city":"Kent","state":"WA","country":"US","zip":"98030","lat":47.3711,"lng":-122.2058,"address":"25650 101st Ave SE","phone":"-","website":"-","has_prayer_times":true,"prayer_url":"https://raw.githubusercontent.com/ahmednabulsi/weekly-scraper/refs/heads/main/prayer-times/usa/WA/kK3vZPde/prayers.json"},{"id":"0dYBp9K6","name":"Al-Imraan Islamic Center","city":"Kent","state":"WA","country":"US","zip":"98030","lat":47.372,"lng":-122.1888,"address":"10615SE 256th Pl.     STE#101","phone":"2062292727","website":"-","has_prayer_times":true,"prayer_url":"https://raw.githubusercontent.com/ahmednabulsi/weekly-scraper/refs/heads/main/prayer-times/usa/WA/0dYBp9K6/prayers.json"},{"id":"keLQjWAM","name":"Idris Mosque","city":"Seattle","state":"WA","country":"US","zip":"98125","lat":47.7087,"lng":-122.3129,"address":"1400 NE Northgate Way","phone":"2063633013","website":"https://www.idrismosque.com/","has_prayer_times":true,"prayer_url":"https://raw.githubusercontent.com/ahmednabulsi/weekly-scraper/refs/heads/main/prayer-times/usa/WA/keLQjWAM/prayers.json"},{"id":"wAaqkxA1","name":"ICFW Islamic Center of Federal Way","city":"Kent","state":"Washington","country":"US","zip":"98032","lat":47.3581,"lng":-122.2906,"address":"3228 S 272nd St","phone":"2535206544","website":"https://www.facebook.com/IslamicCenterOfFederalWay/","has_prayer_times":true,"prayer_url":"https://raw.githubusercontent.com/ahmednabulsi/weekly-scraper/refs/heads/main/prayer-times/usa/Washington/wAaqkxA1/prayers.json"},{"id":"VrdRbPdG","name":"Muslim Association of PugetSound","city":"Redmond","state":"WA","country":"US","zip":"98052","lat":47.6657,"lng":-122.1066,"address":"17550 NE 67th Ct","phone":"425-861-9555","website":"https://mapsredmond.org/","has_prayer_times":true,"prayer_url":"https://raw.githubusercontent.com/ahmednabulsi/weekly-scraper/refs/heads/main/prayer-times/usa/WA/VrdRbPdG/prayers.json"},{"id":"GAE3DNKn","name":"Islamic Center of Redmond ( ICOR )","city":"Redmond","state":"Washington","country":"US","zip":"98052","lat":47.6678,"lng":-122.0979,"address":"18080 NE 68th St","phone":"-","website":"-","has_prayer_times":true,"prayer_url":"https://raw.githubusercontent.com/ahmednabulsi/weekly-scraper/refs/heads/main/prayer-times/usa/Washington/GAE3DNKn/prayers.json"},{"id":"1QL0nydZ","name":"Islamic Center of North Seattle (Lake City)","city":"Seattle","state":"WA","country":"US","zip":"98125","lat":47.7201,"lng":-122.2944,"address":"12528 Lake City Way NE","phone":"2064583724","website":"https://www.islamiccenterofnorthseattle.com","has_prayer_times":true,"prayer_url":"https://raw.githubusercontent.com/ahmednabulsi/weekly-scraper/refs/heads/main/prayer-times/usa/WA/1QL0nydZ/prayers.json"},{"id":"4KB9JPd5","name":"Alfirdows Dawah Center","city":"Federal Way","state":"Washington","country":"US","zip":"98003","lat":47.3221,"lng":-122.3116,"address":"1711 S 312th St","phone":"2534556756","website":"-","has_prayer_times":true,"prayer_url":"https://raw.githubusercontent.com/ahmednabulsi/weekly-scraper/refs/heads/main/prayer-times/usa/Washington/4KB9JPd5/prayers.json"},{"id":"RKxy3MLO","name":"Islamic Center of Maple Valley","city":"Maple Valley","state":"WA","country":"US","zip":"98038","lat":47.388,"lng":-122.0422,"address":"23745 225th Way SE","phone":"-","website":"https://maplevalleymosque.org/","has_prayer_times":true,"prayer_url":"https://raw.githubusercontent.com/ahmednabulsi/weekly-scraper/refs/heads/main/prayer-times/usa/WA/RKxy3MLO/prayers.json"},{"id":"QKM5G9KB","name":"Redmond Ridge Masjid (CHF)","city":"Redmond","state":"WA","country":"US","zip":"98053","lat":47.6984,"lng":-122.0153,"address":"11309 244th Ave NE","phone":"4254482555","website":"http://chfmosque.org/","has_prayer_times":true,"prayer_url":"https://raw.githubusercontent.com/ahmednabulsi/weekly-scraper/refs/heads/main/prayer-times/usa/WA/QKM5G9KB/prayers.json"},{"id":"1QL09WAZ","name":"Islamic Center of Bothell","city":"Bothell","state":"WA","country":"US","zip":"98021","lat":47.7779,"lng":-122.1906,"address":"3300 Monte Villa Pkwy","phone":"5122226996","website":"https://bothellmosque.org","has_prayer_times":true,"prayer_url":"https://raw.githubusercontent.com/ahmednabulsi/weekly-scraper/refs/heads/main/prayer-times/usa/WA/1QL09WAZ/prayers.json"},{"id":"5AvorodX","name":"Umar Al-Farooq","city":"Mountlake Terrace","state":"Washington","country":"US","zip":"98043","lat":47.7882,"lng":-122.3088,"address":"5507 238th St SW, Mountlake Terrace","phone":"-","website":"-","has_prayer_times":true,"prayer_url":"https://raw.githubusercontent.com/ahmednabulsi/weekly-scraper/refs/heads/main/prayer-times/usa/Washington/5AvorodX/prayers.json"},{"id":"8KXryYAM","name":"Islamic Center of Kitsap County","city":"Bremerton","state":"Washington","country":"US","zip":"98312","lat":47.572,"lng":-122.6645,"address":"1140 Marine Dr","phone":"3609087399","website":"-","has_prayer_times":true,"prayer_url":"https://raw.githubusercontent.com/ahmednabulsi/weekly-scraper/refs/heads/main/prayer-times/usa/Washington/8KXryYAM/prayers.json"},{"id":"yLjOlDAQ","name":"Madeena Masjid Duvall","city":"Duvall","state":"WA","country":"US","zip":"98019","lat":47.7396,"lng":-121.9857,"address":"15420 Main St NE","phone":"-","website":"https://masjidmadeena.org/masjid_madeena_duvAll/","has_prayer_times":true,"prayer_url":"https://raw.githubusercontent.com/ahmednabulsi/weekly-scraper/refs/heads/main/prayer-times/usa/WA/yLjOlDAQ/prayers.json"},{"id":"xdy0aXAX","name":"Evergreen Islamic Institute - Dar Al Arqam","city":"Lynnwood","state":"WA","country":"US","zip":"98037","lat":47.8278,"lng":-122.3172,"address":"6210 188th St SW","phone":"2066965040","website":"https://www.daralarqam.org","has_prayer_times":true,"prayer_url":"https://raw.githubusercontent.com/ahmednabulsi/weekly-scraper/refs/heads/main/prayer-times/usa/WA/xdy0aXAX/prayers.json"},{"id":"1QL0VydZ","name":"ICOPS - Islamic Center of Puget Sound","city":"Lynnwood","state":"WA","country":"US","zip":"98087","lat":47.8561,"lng":-122.2885,"address":"15709 Hwy 99","phone":"(206) 229-0687","website":"https://icopsmasjidwa.org","has_prayer_times":true,"prayer_url":"https://raw.githubusercontent.com/ahmednabulsi/weekly-scraper/refs/heads/main/prayer-times/usa/WA/1QL0VydZ/prayers.json"},{"id":"QL0BkbdZ","name":"Islamic Center of Tacoma","city":"Tacoma","state":"Washington","country":"US","zip":"98409","lat":47.2246,"lng":-122.4697,"address":"31 Montana Ave","phone":"-","website":"https://icoft.com/","has_prayer_times":true,"prayer_url":"https://raw.githubusercontent.com/ahmednabulsi/weekly-scraper/refs/heads/main/prayer-times/usa/Washington/QL0BkbdZ/prayers.json"},{"id":"Vdw3r8de","name":"Everett Muslim Community Center","city":"Everett","state":"Washington","country":"US","zip":"98208","lat":47.9086,"lng":-122.2253,"address":"500 SE Everett Mall Way","phone":"-","website":"https://www.facebook.com/everettmasjid","has_prayer_times":true,"prayer_url":"https://raw.githubusercontent.com/ahmednabulsi/weekly-scraper/refs/heads/main/prayer-times/usa/Washington/Vdw3r8de/prayers.json"},{"id":"ZyLjmPKQ","name":"Bilal Islamic Center of WA","city":"Everett","state":"WA","country":"US","zip":"98208","lat":47.9104,"lng":-122.2245,"address":"607 SE Everett Mall Way","phone":"4252619082","website":"http://www.bilalislamiccenter.com","has_prayer_times":true,"prayer_url":"https://raw.githubusercontent.com/ahmednabulsi/weekly-scraper/refs/heads/main/prayer-times/usa/WA/ZyLjmPKQ/prayers.json"},{"id":"y0LbBXLo","name":"Puyallup Islamic Community Center","city":"Puyallup","state":"Washington","country":"US","zip":"98374","lat":47.1489,"lng":-122.2817,"address":"11815 110th Ave E","phone":"2533500938","website":"https://www.puyallupmasjid.org/","has_prayer_times":true,"prayer_url":"https://raw.githubusercontent.com/ahmednabulsi/weekly-scraper/refs/heads/main/prayer-times/usa/Washington/y0LbBXLo/prayers.json"},{"id":"9L2MGaKZ","name":"Islamic Center of Monroe","city":"Monroe","state":"Washington","country":"US","zip":"98272","lat":47.8595,"lng":-121.966,"address":"19683 US-2","phone":"-","website":"https://monroemosque.com/","has_prayer_times":true,"prayer_url":"https://raw.githubusercontent.com/ahmednabulsi/weekly-scraper/refs/heads/main/prayer-times/usa/Washington/9L2MGaKZ/prayers.json"},{"id":"JAmzE9dR","name":"MASJID AL-HUDA ICCC","city":"Minneapolis","state":"MN","country":"US","zip":"55418","lat":45.0143,"lng":-93.2478,"address":"2534 Central Ave NE","phone":"6514349270","website":"https://www.alhudacenter.net/","has_prayer_times":true,"prayer_url":"https://raw.githubusercontent.com/ahmednabulsi/weekly-scraper/refs/heads/main/prayer-times/usa/MN/JAmzE9dR/prayers.json"},{"id":"QL0BDndZ","name":"Dar al Qalam Cultural Center","city":"Minneapolis","state":"MN","country":"US","zip":"55418","lat":45.0134,"lng":-93.2685,"address":"81 NE Lowry Ave","phone":"6122268467","website":"http://www.daralqalam.org","has_prayer_times":true,"prayer_url":"https://raw.githubusercontent.com/ahmednabulsi/weekly-scraper/refs/heads/main/prayer-times/usa/MN/QL0BDndZ/prayers.json"},{"id":"pArj4BAb","name":"Uthman islamic Center","city":"Minneapolis","state":"Minnesota","country":"US","zip":"55411","lat":45.0098,"lng":-93.2876,"address":"2900 N Lyndale Ave","phone":"6127156668","website":"-","has_prayer_times":true,"prayer_url":"https://raw.githubusercontent.com/ahmednabulsi/weekly-scraper/refs/heads/main/prayer-times/usa/Minnesota/pArj4BAb/prayers.json"},{"id":"0dYlJ7A6","name":"Abu Huraira Islamic Center","city":"St Anthony","state":"MN","country":"US","zip":"55418","lat":45.0242,"lng":-93.2093,"address":"3055 Old Hwy 8","phone":"-","website":"-","has_prayer_times":true,"prayer_url":"https://raw.githubusercontent.com/ahmednabulsi/weekly-scraper/refs/heads/main/prayer-times/usa/MN/0dYlJ7A6/prayers.json"},{"id":"OA8a62dp","name":"ICBMN","city":"Minneapolis","state":"Minnesota","country":"US","zip":"55413","lat":44.9986,"lng":-93.2545,"address":"668 Broadway St NE","phone":"-","website":"-","has_prayer_times":true,"prayer_url":"https://raw.githubusercontent.com/ahmednabulsi/weekly-scraper/refs/heads/main/prayer-times/usa/Minnesota/OA8a62dp/prayers.json"},{"id":"XAlRwNKb","name":"Masjid Al Israa","city":"Fridley","state":"MN","country":"US","zip":"55432","lat":45.0906,"lng":-93.2426,"address":"6831 Hwy 65 NE","phone":"6128886252","website":"http://masjidalisraa.org","has_prayer_times":true,"prayer_url":"https://raw.githubusercontent.com/ahmednabulsi/weekly-scraper/refs/heads/main/prayer-times/usa/MN/XAlRwNKb/prayers.json"},{"id":"xdyqy0dX","name":"Masjid anNur","city":"Minneapolis","state":"MN","country":"US","zip":"55411","lat":44.9972,"lng":-93.2884,"address":"1729 N Lyndale Ave","phone":"6125211749","website":"https://masjidannur.org/","has_prayer_times":true,"prayer_url":"https://raw.githubusercontent.com/ahmednabulsi/weekly-scraper/refs/heads/main/prayer-times/usa/MN/xdyqy0dX/prayers.json"},{"id":"yLjOjbAQ","name":"Bilal dawal center","city":"Minneapolis","state":"Minnesota","country":"US","zip":"55432","lat":45.0993,"lng":-93.2647,"address":"7200 University Ave NE","phone":"7633001273","website":"-","has_prayer_times":true,"prayer_url":"https://raw.githubusercontent.com/ahmednabulsi/weekly-scraper/refs/heads/main/prayer-times/usa/Minnesota/yLjOjbAQ/prayers.json"},{"id":"YAD4ZJAN","name":"Bilal Oromo Dawa Center","city":"Fridley, MN","state":"MN","country":"US","zip":"55432","lat":45.0993,"lng":-93.2647,"address":"7200 University Ave NE","phone":"6128004393","website":"-","has_prayer_times":true,"prayer_url":"https://raw.githubusercontent.com/ahmednabulsi/weekly-scraper/refs/heads/main/prayer-times/usa/MN/YAD4ZJAN/prayers.json"},{"id":"xdNPgJLV","name":"Dar Omar Al-Farooq","city":"Minneapolis","state":"MN","country":"US","zip":"55414","lat":44.9873,"lng":-93.2289,"address":"983 17th Ave SE","phone":"6123311234","website":"https://daromaralfarooq.org/","has_prayer_times":true,"prayer_url":"https://raw.githubusercontent.com/ahmednabulsi/weekly-scraper/refs/heads/main/prayer-times/usa/MN/xdNPgJLV/prayers.json"},{"id":"PAPnDrKJ","name":"Masjid Al-furqaan","city":"Minneapolis","state":"MN","country":"US","zip":"55405","lat":44.9806,"lng":-93.3002,"address":"1525 Glenwood Ave","phone":"-","website":"-","has_prayer_times":true,"prayer_url":"https://raw.githubusercontent.com/ahmednabulsi/weekly-scraper/refs/heads/main/prayer-times/usa/MN/PAPnDrKJ/prayers.json"},{"id":"0aAemXAj","name":"Masjid Shaafici","city":"Minneapolis","state":"MN","country":"US","zip":"55454","lat":44.9702,"lng":-93.2476,"address":"402 Cedar Ave","phone":"-","website":"-","has_prayer_times":true,"prayer_url":"https://raw.githubusercontent.com/ahmednabulsi/weekly-scraper/refs/heads/main/prayer-times/usa/MN/0aAemXAj/prayers.json"},{"id":"0Lbpaado","name":"DARUL QUBA","city":"Minneapolis","state":"MN","country":"US","zip":"55454","lat":44.9688,"lng":-93.2509,"address":"1501 S 6th St","phone":"7635018770","website":"https://www.darul-quba.org/","has_prayer_times":true,"prayer_url":"https://raw.githubusercontent.com/ahmednabulsi/weekly-scraper/refs/heads/main/prayer-times/usa/MN/0Lbpaado/prayers.json"},{"id":"3AObN9Le","name":"Dar Al-Hijrah Minneapolis","city":"Minneapolis","state":"Minnesota","country":"US","zip":"55454","lat":44.9686,"lng":-93.2475,"address":"504 Cedar Ave","phone":"-","website":"-","has_prayer_times":true,"prayer_url":"https://raw.githubusercontent.com/ahmednabulsi/weekly-scraper/refs/heads/main/prayer-times/usa/Minnesota/3AObN9Le/prayers.json"},{"id":"nL12jRAa","name":"Masjid Al Ansar Islamic Community Center","city":"Brooklyn Center","state":"Minnesota","country":"US","zip":"55429","lat":45.0748,"lng":-93.3562,"address":"4900 France Ave N","phone":"7632211661","website":"https://www.masjidalansarmn.com/","has_prayer_times":true,"prayer_url":"https://raw.githubusercontent.com/ahmednabulsi/weekly-scraper/refs/heads/main/prayer-times/usa/Minnesota/nL12jRAa/prayers.json"},{"id":"lJAmV2dR","name":"Tawhid Islamic Center","city":"Saint Paul","state":"MN","country":"US","zip":"55114","lat":44.9712,"lng":-93.2056,"address":"1001 Westgate Dr","phone":"-","website":"https://tawhidic.org/","has_prayer_times":true,"prayer_url":"https://raw.githubusercontent.com/ahmednabulsi/weekly-scraper/refs/heads/main/prayer-times/usa/MN/lJAmV2dR/prayers.json"},{"id":"jKZqE7dX","name":"Al Hikmah Islamic Center","city":"Minneapolis","state":"Minnesota","country":"US","zip":"55406","lat":44.9626,"lng":-93.2382,"address":"2323 E Franklin Ave","phone":"6125005888","website":"https://hikmahcenter.org/","has_prayer_times":true,"prayer_url":"https://raw.githubusercontent.com/ahmednabulsi/weekly-scraper/refs/heads/main/prayer-times/usa/Minnesota/jKZqE7dX/prayers.json"},{"id":"QL0BObdZ","name":"Masjid Ar-Rahim Islamic Center","city":"Brooklyn Park","state":"MN","country":"US","zip":"55443","lat":45.0903,"lng":-93.3542,"address":"5820 74th Ave N","phone":"-","website":"-","has_prayer_times":true,"prayer_url":"https://raw.githubusercontent.com/ahmednabulsi/weekly-scraper/refs/heads/main/prayer-times/usa/MN/QL0BObdZ/prayers.json"},{"id":"kK3yQyAe","name":"Tawfiq Islamic Center","city":"Minneapolis","state":"MN","country":"US","zip":"55404","lat":44.9587,"lng":-93.2423,"address":"2400 Minnehaha Ave","phone":"6517755549","website":"https://www.tawfiqic.org","has_prayer_times":true,"prayer_url":"https://raw.githubusercontent.com/ahmednabulsi/weekly-scraper/refs/heads/main/prayer-times/usa/MN/kK3yQyAe/prayers.json"},{"id":"rdRyYvAG","name":"Darul Arqam Center of Excellence","city":"Blaine","state":"Minnesota","country":"US","zip":"55434","lat":45.1286,"lng":-93.2363,"address":"8710 Central Ave NE","phone":"-","website":"https://darularqammn.com/","has_prayer_times":true,"prayer_url":"https://raw.githubusercontent.com/ahmednabulsi/weekly-scraper/refs/heads/main/prayer-times/usa/Minnesota/rdRyYvAG/prayers.json"},{"id":"wAa3bnK1","name":"MASJID RAWDAH","city":"Minneapolis","state":"Minnesota","country":"US","zip":"55406","lat":44.9558,"lng":-93.2366,"address":"2426 E 26th St","phone":"6122504290","website":"-","has_prayer_times":true,"prayer_url":"https://raw.githubusercontent.com/ahmednabulsi/weekly-scraper/refs/heads/main/prayer-times/usa/Minnesota/wAa3bnK1/prayers.json"},{"id":"XAlzz8Kb","name":"Brooklyn Park Islamic Center","city":"Brooklyn Park","state":"MN","country":"US","zip":"55444","lat":45.1246,"lng":-93.3068,"address":"2100 93rd Way","phone":"-","website":"-","has_prayer_times":true,"prayer_url":"https://raw.githubusercontent.com/ahmednabulsi/weekly-scraper/refs/heads/main/prayer-times/usa/MN/XAlzz8Kb/prayers.json"},{"id":"VdwqVxLe","name":"MAS Taqwa Masjid","city":"St Paul","state":"MN","country":"US","zip":"55108","lat":44.9771,"lng":-93.1683,"address":"1608 Como Ave","phone":"-","website":"-","has_prayer_times":true,"prayer_url":"https://raw.githubusercontent.com/ahmednabulsi/weekly-scraper/refs/heads/main/prayer-times/usa/MN/VdwqVxLe/prayers.json"},{"id":"yLjOePAQ","name":"Abubakar As-Sadique Islamic Center","city":"Minneapolis","state":"Minnesota","country":"US","zip":"55407","lat":44.9511,"lng":-93.2567,"address":"2824 13th Ave S","phone":"-","website":"https://abuubakar.org/","has_prayer_times":true,"prayer_url":"https://raw.githubusercontent.com/ahmednabulsi/weekly-scraper/refs/heads/main/prayer-times/usa/Minnesota/yLjOePAQ/prayers.json"},{"id":"DAgvOOL0","name":"Karmel Community Prayer Center","city":"Minneapolis","state":"MN","country":"US","zip":"55408","lat":44.95,"lng":-93.2818,"address":"2910 Pillsbury Ave  S Suite 300","phone":"(612) 707-6508","website":"-","has_prayer_times":true,"prayer_url":"https://raw.githubusercontent.com/ahmednabulsi/weekly-scraper/refs/heads/main/prayer-times/usa/MN/DAgvOOL0/prayers.json"},{"id":"0Lbk5NAo","name":"Umatul Islam Center","city":"Minneapolis","state":"Minnesota","country":"US","zip":"55408","lat":44.9482,"lng":-93.274,"address":"3015 2nd Ave S","phone":"6123881447","website":"https://umatulislam.org/","has_prayer_times":true,"prayer_url":"https://raw.githubusercontent.com/ahmednabulsi/weekly-scraper/refs/heads/main/prayer-times/usa/Minnesota /0Lbk5NAo/prayers.json"},{"id":"GA6abeLe","name":"Khalid Ibn Al-Walid","city":"Minneapolis","state":"MN","country":"US","zip":"55408","lat":44.9487,"lng":-93.2809,"address":"124 W Lake St","phone":"7633285756","website":"-","has_prayer_times":true,"prayer_url":"https://raw.githubusercontent.com/ahmednabulsi/weekly-scraper/refs/heads/main/prayer-times/usa/MN/GA6abeLe/prayers.json"},{"id":"QKMqgGKB","name":"Al-Ansar Islamic Movement of Minnesota","city":"Minneapolis","state":"Minnesota","country":"US","zip":"55412","lat":45.1286,"lng":-93.3218,"address":"1600 Lowry Ave N","phone":"-","website":"http://www.aimom.org/","has_prayer_times":true,"prayer_url":"https://raw.githubusercontent.com/ahmednabulsi/weekly-scraper/refs/heads/main/prayer-times/usa/Minnesota/QKMqgGKB/prayers.json"},{"id":"0LbpOXdo","name":"MASJID  AL-HIKMA ASSOCIATION","city":"Minneapolis","state":"MN","country":"US","zip":"55408","lat":44.9453,"lng":-93.2757,"address":"116 E 32nd St","phone":"6125015472","website":"https://alhikmaa.org","has_prayer_times":true,"prayer_url":"https://raw.githubusercontent.com/ahmednabulsi/weekly-scraper/refs/heads/main/prayer-times/usa/MN/0LbpOXdo/prayers.json"},{"id":"nL128VAa","name":"Masjid Al-Akbar","city":"Minneapolis","state":"Minnesota","country":"US","zip":"55406","lat":44.948,"lng":-93.2166,"address":"3600 E Lake St.","phone":"-","website":"-","has_prayer_times":true,"prayer_url":"https://raw.githubusercontent.com/ahmednabulsi/weekly-scraper/refs/heads/main/prayer-times/usa/Minnesota/nL128VAa/prayers.json"},{"id":"0AWpVWdj","name":"Masjid Dawah","city":"Saint Paul","state":"Minnesota","country":"US","zip":"55104","lat":44.9595,"lng":-93.1779,"address":"605 Fairview Ave N","phone":"-","website":"-","has_prayer_times":true,"prayer_url":"https://raw.githubusercontent.com/ahmednabulsi/weekly-scraper/refs/heads/main/prayer-times/usa/Minnesota/0AWpVWdj/prayers.json"},{"id":"9L2MoNKZ","name":"MAS Coon Rapids Masjid","city":"Coon Rapids","state":"MN","country":"US","zip":"55433","lat":45.153,"lng":-93.2998,"address":"1313 Coon Rapids Blvd NW","phone":"-","website":"-","has_prayer_times":true,"prayer_url":"https://raw.githubusercontent.com/ahmednabulsi/weekly-scraper/refs/heads/main/prayer-times/usa/MN/9L2MoNKZ/prayers.json"},{"id":"EdoeO9L7","name":"Masjid Al-Ihsan (MN)","city":"Saint Paul","state":"Minnesota","country":"US","zip":"55104","lat":44.9637,"lng":-93.1409,"address":"955 W Minnehaha Ave","phone":"7632868180","website":"-","has_prayer_times":true,"prayer_url":"https://raw.githubusercontent.com/ahmednabulsi/weekly-scraper/refs/heads/main/prayer-times/usa/Minnesota/EdoeO9L7/prayers.json"},{"id":"0dYeyyd6","name":"Masjid Salahuddin - As-Suffah Islamic Center","city":"Circle Pines","state":"Minnesota","country":"US","zip":"55014","lat":45.1457,"lng":-93.18,"address":"3629 95th Ave NE","phone":"6124040085","website":"https://as-suffahmn.org","has_prayer_times":true,"prayer_url":"https://raw.githubusercontent.com/ahmednabulsi/weekly-scraper/refs/heads/main/prayer-times/usa/Minnesota/0dYeyyd6/prayers.json"},{"id":"VL4owpKx","name":"Baitul-Maqdis Masjid","city":"Blaine","state":"Minnesota","country":"US","zip":"55449","lat":45.156,"lng":-93.1703,"address":"3680 Pheasant Ridge Dr NE","phone":"-","website":"-","has_prayer_times":true,"prayer_url":"https://raw.githubusercontent.com/ahmednabulsi/weekly-scraper/refs/heads/main/prayer-times/usa/Minnesota/VL4owpKx/prayers.json"},{"id":"JdGmjXLP","name":"MAS Maple Grove Masjid","city":"Maple Grove","state":"MN","country":"US","zip":"55369","lat":45.1393,"lng":-93.4026,"address":"10186 Lancaster Ln N","phone":"-","website":"https://masmn.org/maple-grove-masjid/","has_prayer_times":true,"prayer_url":"https://raw.githubusercontent.com/ahmednabulsi/weekly-scraper/refs/heads/main/prayer-times/usa/MN/JdGmjXLP/prayers.json"},{"id":"XAllGzAb","name":"IQRA MASJID","city":"Saint Paul","state":"Minnesota","country":"US","zip":"55102","lat":44.9262,"lng":-93.1286,"address":"1044 7th St W","phone":"-","website":"-","has_prayer_times":true,"prayer_url":"https://raw.githubusercontent.com/ahmednabulsi/weekly-scraper/refs/heads/main/prayer-times/usa/Minnesota/XAllGzAb/prayers.json"},{"id":"xdNPqnLV","name":"MAS Blaine Masjid","city":"Blaine","state":"MN","country":"US","zip":"55449","lat":45.1913,"lng":-93.2324,"address":"12175 Aberdeen St NE","phone":"-","website":"-","has_prayer_times":true,"prayer_url":"https://raw.githubusercontent.com/ahmednabulsi/weekly-scraper/refs/heads/main/prayer-times/usa/MN/xdNPqnLV/prayers.json"},{"id":"JAmznNdR","name":"Masjid Al-Wahyain Islamic Center","city":"Saint Paul","state":"Minnesota","country":"US","zip":"55130","lat":44.9613,"lng":-93.0758,"address":"670 Payne Ave","phone":"-","website":"-","has_prayer_times":true,"prayer_url":"https://raw.githubusercontent.com/ahmednabulsi/weekly-scraper/refs/heads/main/prayer-times/usa/Minnesota/JAmznNdR/prayers.json"},{"id":"adJq5rAk","name":"Masjid Al Kareem (NWICC)","city":"Plymouth","state":"MN","country":"US","zip":"55447","lat":45.0184,"lng":-93.473,"address":"3300 Plymouth Blvd","phone":"-","website":"https://www.nwiccmn.org","has_prayer_times":true,"prayer_url":"https://raw.githubusercontent.com/ahmednabulsi/weekly-scraper/refs/heads/main/prayer-times/usa/MN/adJq5rAk/prayers.json"},{"id":"zKzoJZLO","name":"Maplewood Mosque","city":"Maplewood","state":"MN","country":"US","zip":"55109","lat":45.0025,"lng":-93.0388,"address":"1460 Skillman Ave E","phone":"-","website":"-","has_prayer_times":true,"prayer_url":"https://raw.githubusercontent.com/ahmednabulsi/weekly-scraper/refs/heads/main/prayer-times/usa/MN/zKzoJZLO/prayers.json"},{"id":"8L7jzjK5","name":"DARUL-ULOOM ISLAMIC CENTER","city":"St Paul","state":"MN","country":"US","zip":"55106","lat":44.9598,"lng":-93.0597,"address":"967 5TH ST E ST","phone":"612-800-2760","website":"https://www.darululoomcenter.org/","has_prayer_times":true,"prayer_url":"https://raw.githubusercontent.com/ahmednabulsi/weekly-scraper/refs/heads/main/prayer-times/usa/MN/8L7jzjK5/prayers.json"},{"id":"GAE974An","name":"Al-Amaan Center","city":"Minnetonka","state":"MN","country":"US","zip":"55343","lat":44.901,"lng":-93.4051,"address":"5620 Smetana Dr","phone":"-","website":"https://alamaan.org","has_prayer_times":true,"prayer_url":"https://raw.githubusercontent.com/ahmednabulsi/weekly-scraper/refs/heads/main/prayer-times/usa/MN/GAE974An/prayers.json"},{"id":"wAa3N8K1","name":"Dar Al-Farooq Islamic Center","city":"Bloomington","state":"MN","country":"US","zip":"55420","lat":44.8544,"lng":-93.2646,"address":"8201 Park Ave S","phone":"952-767-0677","website":"https://daralfarooq.com/","has_prayer_times":true,"prayer_url":"https://raw.githubusercontent.com/ahmednabulsi/weekly-scraper/refs/heads/main/prayer-times/usa/MN/wAa3N8K1/prayers.json"},{"id":"rdRGaPKG","name":"As-Sunnah Islamic Center","city":"St Paul","state":"MN","country":"US","zip":"55119","lat":44.9526,"lng":-93.0133,"address":"373 Pedersen St STE 102","phone":"6518882628","website":"-","has_prayer_times":true,"prayer_url":"https://raw.githubusercontent.com/ahmednabulsi/weekly-scraper/refs/heads/main/prayer-times/usa/MN/rdRGaPKG/prayers.json"},{"id":"xdy0oXAX","name":"Masjid AlTawba","city":"Eden Prairie","state":"MN","country":"US","zip":"55344","lat":44.879,"lng":-93.4127,"address":"6871 Flying Cloud Dr","phone":"9529466061","website":"http://www.altawba.org/","has_prayer_times":true,"prayer_url":"https://raw.githubusercontent.com/ahmednabulsi/weekly-scraper/refs/heads/main/prayer-times/usa/MN/xdy0oXAX/prayers.json"},{"id":"jKZpzNAX","name":"MAS Bloomington Masjid Rahman","city":"Bloomington","state":"MN","country":"US","zip":"55425","lat":44.842,"lng":-93.2485,"address":"8910 Old Cedar Ave S","phone":"-19528830044","website":"https://masmn.org/","has_prayer_times":true,"prayer_url":"https://raw.githubusercontent.com/ahmednabulsi/weekly-scraper/refs/heads/main/prayer-times/usa/MN/jKZpzNAX/prayers.json"},{"id":"RKx6o6AO","name":"Irshad Islamic Center","city":"Eden Prairie","state":"Minnesota","country":"US","zip":"55346","lat":44.887,"lng":-93.4555,"address":"6520 Edenvale Blvd","phone":"-","website":"-","has_prayer_times":true,"prayer_url":"https://raw.githubusercontent.com/ahmednabulsi/weekly-scraper/refs/heads/main/prayer-times/usa/Minnesota/RKx6o6AO/prayers.json"},{"id":"rdRGGbKG","name":"RAMADAN CENTER","city":"St Paul","state":"MN","country":"US","zip":"55119","lat":44.9325,"lng":-93.0055,"address":"291 McKnight Rd S","phone":"612-636-2051","website":"https://ramadancenter.org/","has_prayer_times":true,"prayer_url":"https://raw.githubusercontent.com/ahmednabulsi/weekly-scraper/refs/heads/main/prayer-times/usa/MN/rdRGGbKG/prayers.json"},{"id":"DAgpnDd0","name":"Eagan Islamic Center","city":"Eagan","state":"MN","country":"US","zip":"55122","lat":44.7888,"lng":-93.1999,"address":"1875 Plaza Dr","phone":"-","website":"-","has_prayer_times":true,"prayer_url":"https://raw.githubusercontent.com/ahmednabulsi/weekly-scraper/refs/heads/main/prayer-times/usa/MN/DAgpnDd0/prayers.json"},{"id":"9L21n3KZ","name":"Masjid Abubakar Islamic Center","city":"Louisville","state":"Kentucky","country":"US","zip":"40208","lat":38.2254,"lng":-85.7702,"address":"1536 S 7th St","phone":"5028761544","website":"https://masjidabubakarlouisville.org/","has_prayer_times":true,"prayer_url":"https://raw.githubusercontent.com/ahmednabulsi/weekly-scraper/refs/heads/main/prayer-times/usa/Kentucky/9L21n3KZ/prayers.json"},{"id":"EdolzMK7","name":"Islamic Center of Louisville","city":"Louisville","state":"KY","country":"US","zip":"40208","lat":38.2228,"lng":-85.7623,"address":"1715 S 4th St","phone":"-","website":"-","has_prayer_times":true,"prayer_url":"https://raw.githubusercontent.com/ahmednabulsi/weekly-scraper/refs/heads/main/prayer-times/usa/KY/EdolzMK7/prayers.json"},{"id":"6adJeVAk","name":"Masjid Bilal","city":"Louisville","state":"KY","country":"US","zip":"40210","lat":38.2362,"lng":-85.7832,"address":"1701 Dumesnil St","phone":"(502) 235-3420","website":"-","has_prayer_times":true,"prayer_url":"https://raw.githubusercontent.com/ahmednabulsi/weekly-scraper/refs/heads/main/prayer-times/usa/KY/6adJeVAk/prayers.json"},{"id":"oxdNXPLV","name":"AlNur","city":"Louisville","state":"KY","country":"US","zip":"40208","lat":38.2084,"lng":-85.7647,"address":"2815 S 4th St","phone":"5026146790","website":"https://www.alnurmasjid.org/","has_prayer_times":true,"prayer_url":"https://raw.githubusercontent.com/ahmednabulsi/weekly-scraper/refs/heads/main/prayer-times/usa/KY/oxdNXPLV/prayers.json"},{"id":"4nL1RAaB","name":"Al Hidaya Masjid","city":"Louisville","state":"Kentucky","country":"US","zip":"40214","lat":38.1709,"lng":-85.7701,"address":"5309 Mitscher Ave","phone":"5024683429","website":"http://alhidayamosque.org","has_prayer_times":true,"prayer_url":"https://raw.githubusercontent.com/ahmednabulsi/weekly-scraper/refs/heads/main/prayer-times/usa/Kentucky/4nL1RAaB/prayers.json"},{"id":"YRKxb3AO","name":"Masjid Bilal - Southside","city":"Louisville","state":"KY","country":"US","zip":"40214","lat":38.1662,"lng":-85.7693,"address":"6200 S 3rd St","phone":"5025658358","website":"https://us.mohid.co/ky/louisville/masjidbilalsouthside/masjid/online/donation","has_prayer_times":true,"prayer_url":"https://raw.githubusercontent.com/ahmednabulsi/weekly-scraper/refs/heads/main/prayer-times/usa/KY/YRKxb3AO/prayers.json"},{"id":"GAE9POAn","name":"HIRA Institute","city":"Louisville","state":"KY","country":"US","zip":"40218","lat":38.1965,"lng":-85.6542,"address":"3819 Bardstown Rd","phone":"(502) 821-8418","website":"https://hirainstitute.org","has_prayer_times":true,"prayer_url":"https://raw.githubusercontent.com/ahmednabulsi/weekly-scraper/refs/heads/main/prayer-times/usa/KY/GAE9POAn/prayers.json"},{"id":"QKM5O2KB","name":"Louisville Islamic Center of Compassion","city":"Louisville","state":"KY","country":"US","zip":"40207","lat":38.2914,"lng":-85.6793,"address":"4007 River Rd","phone":"(502) 893-9466","website":"https://www.louisvilleislamiccenter.org","has_prayer_times":true,"prayer_url":"https://raw.githubusercontent.com/ahmednabulsi/weekly-scraper/refs/heads/main/prayer-times/usa/KY/QKM5O2KB/prayers.json"},{"id":"y0LbkNAo","name":"Masjid Kewser","city":"Louisville","state":"KY","country":"US","zip":"40218","lat":38.1966,"lng":-85.6502,"address":"5927 Six Mile Ln","phone":"-","website":"-","has_prayer_times":true,"prayer_url":"https://raw.githubusercontent.com/ahmednabulsi/weekly-scraper/refs/heads/main/prayer-times/usa/KY/y0LbkNAo/prayers.json"},{"id":"wAaDaeL1","name":"Mauritanian community in Louisville and south Indiana","city":"Louisville","state":"Kentucky","country":"US","zip":"40218","lat":38.1815,"lng":-85.6527,"address":"4711 Progress Blvd","phone":"-","website":"-","has_prayer_times":true,"prayer_url":"https://raw.githubusercontent.com/ahmednabulsi/weekly-scraper/refs/heads/main/prayer-times/usa/Kentucky/wAaDaeL1/prayers.json"},{"id":"Edor8MA7","name":"HIRA Masjid","city":"Jeffersonville","state":"Indiana","country":"US","zip":"47130","lat":38.3155,"lng":-85.7052,"address":"2014 Allison Ln","phone":"-","website":"-","has_prayer_times":true,"prayer_url":"https://raw.githubusercontent.com/ahmednabulsi/weekly-scraper/refs/heads/main/prayer-times/usa/Indiana/Edor8MA7/prayers.json"},{"id":"eLQ0xzKM","name":"LAICC","city":"Louisville","state":"KY","country":"US","zip":"40218","lat":38.177,"lng":-85.6457,"address":"4000 Buechel Bank Rd","phone":"9175473025","website":"-","has_prayer_times":true,"prayer_url":"https://raw.githubusercontent.com/ahmednabulsi/weekly-scraper/refs/heads/main/prayer-times/usa/KY/eLQ0xzKM/prayers.json"},{"id":"6kK35Aen","name":"GLIC","city":"Louisville","state":"Kentucky","country":"US","zip":"40218","lat":38.1971,"lng":-85.6342,"address":"6500 Six Mile Ln","phone":"-","website":"-","has_prayer_times":true,"prayer_url":"https://raw.githubusercontent.com/ahmednabulsi/weekly-scraper/refs/heads/main/prayer-times/usa/Kentucky/6kK35Aen/prayers.json"},{"id":"VKpD6PKP","name":"Diyanet Mosque of Kentucky Ahiskan Turks","city":"Louisville","state":"Kentucky","country":"US","zip":"40218","lat":38.1803,"lng":-85.6261,"address":"4604 Bardstown RD","phone":"5023035796","website":"-","has_prayer_times":true,"prayer_url":"https://raw.githubusercontent.com/ahmednabulsi/weekly-scraper/refs/heads/main/prayer-times/usa/Kentucky/VKpD6PKP/prayers.json"},{"id":"wLVOVMAJ","name":"Muslim Community Center of Louisville","city":"Louisville","state":"KY","country":"US","zip":"40222","lat":38.2785,"lng":-85.6,"address":"8215 Old Westport Rd","phone":"-","website":"-","has_prayer_times":true,"prayer_url":"https://raw.githubusercontent.com/ahmednabulsi/weekly-scraper/refs/heads/main/prayer-times/usa/KY/wLVOVMAJ/prayers.json"},{"id":"4KBvMjK5","name":"MCC of Louisville","city":"Louisville","state":"Kentucky","country":"US","zip":"40222","lat":38.2788,"lng":-85.5987,"address":"8215 Old Westport Rd","phone":"-","website":"-","has_prayer_times":true,"prayer_url":"https://raw.githubusercontent.com/ahmednabulsi/weekly-scraper/refs/heads/main/prayer-times/usa/Kentucky/4KBvMjK5/prayers.json"},{"id":"OLnz20LM","name":"Masjid AbulQasim","city":"Corpus Christi","state":"TX","country":"US","zip":"78412","lat":27.6946,"lng":-97.3363,"address":"7341 McArdle Rd","phone":"+13619928550","website":"https://isstcc.org/","has_prayer_times":true,"prayer_url":"https://raw.githubusercontent.com/ahmednabulsi/weekly-scraper/refs/heads/main/prayer-times/usa/TX/OLnz20LM/prayers.json"},{"id":"x8K9R7Lp","name":"ADAMS Center","city":"Sterling","state":"VA","country":"US","zip":"20164","lat":39.0064,"lng":-77.3793,"address":"46903 Sugarland Rd","phone":"703-433-1325","website":"https://www.adamscenter.org/","has_prayer_times":true,"prayer_url":"https://raw.githubusercontent.com/ahmednabulsi/weekly-scraper/refs/heads/main/prayer-times/usa/VA/x8K9R7Lp/prayers.json"},{"id":"zKz01vAO","name":"Zawiyah Foundation of the DMV","city":"Potomac Falls","state":"Virginia","country":"US","zip":"20165","lat":39.0365,"lng":-77.4002,"address":"21165 Whitfield Place, Suite 202","phone":"-","website":"-","has_prayer_times":true,"prayer_url":"https://raw.githubusercontent.com/ahmednabulsi/weekly-scraper/refs/heads/main/prayer-times/usa/Virginia/zKz01vAO/prayers.json"},{"id":"zKz8goAO","name":"Quba Center","city":"Sterling","state":"VA","country":"US","zip":"20164","lat":39.0029,"lng":-77.4293,"address":"22149 Davis Dr","phone":"-","website":"-","has_prayer_times":true,"prayer_url":"https://raw.githubusercontent.com/ahmednabulsi/weekly-scraper/refs/heads/main/prayer-times/usa/VA/zKz8goAO/prayers.json"},{"id":"y0LbMDKo","name":"AQSA Center","city":"Sterling","state":"VA","country":"US","zip":"20166","lat":38.9963,"lng":-77.4473,"address":"44900 Acacia Ln, #101","phone":"5713131300","website":"https://www.aqsacenter.org","has_prayer_times":true,"prayer_url":"https://raw.githubusercontent.com/ahmednabulsi/weekly-scraper/refs/heads/main/prayer-times/usa/VA/y0LbMDKo/prayers.json"},{"id":"vOLno2AM","name":"McLean Islamic Center","city":"Vienna","state":"VA","country":"US","zip":"22182","lat":38.9356,"lng":-77.2489,"address":"8800 Jarrett Valley Dr","phone":"-","website":"http://www.mcleanmuslims.org/","has_prayer_times":true,"prayer_url":"https://raw.githubusercontent.com/ahmednabulsi/weekly-scraper/refs/heads/main/prayer-times/usa/VA/vOLno2AM/prayers.json"},{"id":"yLjgWjAQ","name":"Madani Masjid","city":"Chantilly","state":"VA","country":"US","zip":"20152","lat":38.9265,"lng":-77.5129,"address":"43073 Little River Tpke","phone":"-","website":"-","has_prayer_times":true,"prayer_url":"https://raw.githubusercontent.com/ahmednabulsi/weekly-scraper/refs/heads/main/prayer-times/usa/VA/yLjgWjAQ/prayers.json"},{"id":"yLjzDGLQ","name":"Hawa Center","city":"Fairfax","state":"Virginia","country":"US","zip":"22033","lat":38.8608,"lng":-77.377,"address":"4401 Fair Lakes Ct","phone":"-","website":"-","has_prayer_times":true,"prayer_url":"https://raw.githubusercontent.com/ahmednabulsi/weekly-scraper/refs/heads/main/prayer-times/usa/Virginia/yLjzDGLQ/prayers.json"},{"id":"nwAaV8d1","name":"Islamic Center of Northern Virginia","city":"Fairfax","state":"VA","country":"US","zip":"22030","lat":38.8459,"lng":-77.3414,"address":"4420 Shirley Gate Rd","phone":"703-591-0999","website":"http://icnvt.com/","has_prayer_times":true,"prayer_url":"https://raw.githubusercontent.com/ahmednabulsi/weekly-scraper/refs/heads/main/prayer-times/usa/VA/nwAaV8d1/prayers.json"},{"id":"jJdGk7dP","name":"ZIA Musallah (Zakaria Islamic Academy)","city":"Chantilly","state":"VA","country":"US","zip":"20152","lat":38.8921,"lng":-77.5426,"address":"26243 Gum Spring Rd","phone":"(571) 969-2123","website":"http://www.ziacademy.org/home","has_prayer_times":true,"prayer_url":"https://raw.githubusercontent.com/ahmednabulsi/weekly-scraper/refs/heads/main/prayer-times/usa/VA/jJdGk7dP/prayers.json"},{"id":"YADlbxAN","name":"McLean Islamic Society","city":"McLean","state":"Virginia","country":"US","zip":"22101","lat":38.938,"lng":-77.1764,"address":"1340 Old Chain Bridge Rd","phone":"-","website":"https://www.mcleanislamicsociety.org/","has_prayer_times":true,"prayer_url":"https://raw.githubusercontent.com/ahmednabulsi/weekly-scraper/refs/heads/main/prayer-times/usa/Virginia/YADlbxAN/prayers.json"},{"id":"E5Av4wKX","name":"Dar Al Hijrah Islamic Center","city":"Falls Church","state":"VA","country":"US","zip":"22044","lat":38.8614,"lng":-77.1466,"address":"3159 Row St","phone":"703-536-1030","website":"https://hijrah.org/","has_prayer_times":true,"prayer_url":"https://raw.githubusercontent.com/ahmednabulsi/weekly-scraper/refs/heads/main/prayer-times/usa/VA/E5Av4wKX/prayers.json"},{"id":"1QL0PWLZ","name":"Islamic Center of Maryland","city":"Gaithersburg","state":"MD","country":"US","zip":"20879","lat":39.1747,"lng":-77.1506,"address":"19411 Woodfield Rd","phone":"(240) 912-4976","website":"https://www.icomd.org/","has_prayer_times":true,"prayer_url":"https://raw.githubusercontent.com/ahmednabulsi/weekly-scraper/refs/heads/main/prayer-times/usa/MD/1QL0PWLZ/prayers.json"},{"id":"GA6g5bde","name":"Peace Islamic Center","city":"Burke","state":"VA","country":"US","zip":"22015","lat":38.7767,"lng":-77.2671,"address":"9306 Old Keene Mill Rd","phone":"703-955-5272","website":"https://peaceislamiccenter.org","has_prayer_times":true,"prayer_url":"https://raw.githubusercontent.com/ahmednabulsi/weekly-scraper/refs/heads/main/prayer-times/usa/VA/GA6g5bde/prayers.json"},{"id":"wdqv4PKb","name":"Mustafacenter","city":"Annandale","state":"VA","country":"US","zip":"22003","lat":38.8125,"lng":-77.1833,"address":"6844 Braddock Rd","phone":"-","website":"-","has_prayer_times":true,"prayer_url":"https://raw.githubusercontent.com/ahmednabulsi/weekly-scraper/refs/heads/main/prayer-times/usa/VA/wdqv4PKb/prayers.json"},{"id":"keLQ67AM","name":"Salam Center  MACO","city":"Falls Church","state":"VA","country":"US","zip":"22041","lat":38.8512,"lng":-77.1251,"address":"5667 Columbia Pike","phone":"7033477222","website":"https://macous.org","has_prayer_times":true,"prayer_url":"https://raw.githubusercontent.com/ahmednabulsi/weekly-scraper/refs/heads/main/prayer-times/usa/VA/keLQ67AM/prayers.json"},{"id":"GA6g9Gde","name":"Manassas Muslim Association","city":"Manassas","state":"VA","country":"US","zip":"20110","lat":38.761,"lng":-77.4524,"address":"9059 Euclid Ave","phone":"-","website":"-","has_prayer_times":true,"prayer_url":"https://raw.githubusercontent.com/ahmednabulsi/weekly-scraper/refs/heads/main/prayer-times/usa/VA/GA6g9Gde/prayers.json"},{"id":"eLQeMwLM","name":"Prince William Islamic Center","city":"Manassas","state":"VA","country":"US","zip":"20110","lat":38.7599,"lng":-77.4658,"address":"9002 Mathis Ave","phone":"-","website":"https://pwicva.org/","has_prayer_times":true,"prayer_url":"https://raw.githubusercontent.com/ahmednabulsi/weekly-scraper/refs/heads/main/prayer-times/usa/VA/eLQeMwLM/prayers.json"},{"id":"OA82GyKp","name":"Imam al-Asr Masjid","city":"Alexandria","state":"VA","country":"US","zip":"22312","lat":38.804,"lng":-77.1658,"address":"5501 Cherokee Ave","phone":"+17038285893","website":"https://www.imamalasr.org","has_prayer_times":true,"prayer_url":"https://raw.githubusercontent.com/ahmednabulsi/weekly-scraper/refs/heads/main/prayer-times/usa/VA/OA82GyKp/prayers.json"},{"id":"8K9OZnAp","name":"ASIC","city":"Falls Church","state":"VA","country":"US","zip":"22041","lat":38.8423,"lng":-77.1161,"address":"3709 S George Mason Dr","phone":"-","website":"-","has_prayer_times":true,"prayer_url":"https://raw.githubusercontent.com/ahmednabulsi/weekly-scraper/refs/heads/main/prayer-times/usa/VA/8K9OZnAp/prayers.json"},{"id":"VKpDOJKP","name":"Darul Hikmah Islamic Center","city":"Alexandria","state":"VA","country":"US","zip":"22311","lat":38.8387,"lng":-77.1187,"address":"5220 Fillmore Ave","phone":"7037051666","website":"https://www.dhicva.org","has_prayer_times":true,"prayer_url":"https://raw.githubusercontent.com/ahmednabulsi/weekly-scraper/refs/heads/main/prayer-times/usa/VA/VKpDOJKP/prayers.json"},{"id":"YRKxVOAO","name":"MAS DC Community Center","city":"Alexandria","state":"VA","country":"US","zip":"22312","lat":38.8051,"lng":-77.1575,"address":"6408 Edsall Rd","phone":"(703) 278-3717","website":"https://www.masdc.org/","has_prayer_times":true,"prayer_url":"https://raw.githubusercontent.com/ahmednabulsi/weekly-scraper/refs/heads/main/prayer-times/usa/VA/YRKxVOAO/prayers.json"},{"id":"OMA5gDKr","name":"Imaam Centerr","city":"Silver Spring","state":"MD","country":"US","zip":"20910","lat":39.0043,"lng":-77.0375,"address":"9100 Georgia Ave","phone":"240-233-6967","website":"https://imaamcenter.org/","has_prayer_times":true,"prayer_url":"https://raw.githubusercontent.com/ahmednabulsi/weekly-scraper/refs/heads/main/prayer-times/usa/MD/OMA5gDKr/prayers.json"},{"id":"MjKZOmLX","name":"Masjid Noor - AIM","city":"Springfield","state":"VA","country":"US","zip":"22153","lat":38.7434,"lng":-77.2424,"address":"8608 Pohick Rd","phone":"703.451.7615","website":"https://www.aim-masjidnoor.org/","has_prayer_times":true,"prayer_url":"https://raw.githubusercontent.com/ahmednabulsi/weekly-scraper/refs/heads/main/prayer-times/usa/VA/MjKZOmLX/prayers.json"},{"id":"zVKpWodP","name":"Umm Ul Qura","city":"Alexandria","state":"VA","country":"US","zip":"22310","lat":38.7798,"lng":-77.1555,"address":"6287 Franconia Rd","phone":"(703) 624-4626","website":"https://uuqcenter.org","has_prayer_times":true,"prayer_url":"https://raw.githubusercontent.com/ahmednabulsi/weekly-scraper/refs/heads/main/prayer-times/usa/VA/zVKpWodP/prayers.json"},{"id":"kAk2xQLq","name":"Deen Series","city":"Alexandria","state":"VA","country":"US","zip":"22310","lat":38.7802,"lng":-77.1528,"address":"6190 Old Franconia Rd","phone":"15714257600","website":"https://deenseries.org/","has_prayer_times":true,"prayer_url":"https://raw.githubusercontent.com/ahmednabulsi/weekly-scraper/refs/heads/main/prayer-times/usa/VA/kAk2xQLq/prayers.json"},{"id":"xdNv0xdV","name":"Avondale Islamic Center","city":"Chillum","state":"MD","country":"US","zip":"20712","lat":38.9638,"lng":-76.9911,"address":"4637 Eastern Ave NE","phone":"-","website":"https://www.avondaleislamiccenter.org","has_prayer_times":true,"prayer_url":"https://raw.githubusercontent.com/ahmednabulsi/weekly-scraper/refs/heads/main/prayer-times/usa/MD/xdNv0xdV/prayers.json"},{"id":"QL019nAZ","name":"ADAMS Gainesville","city":"Nokesville","state":"Virginia","country":"US","zip":"20181","lat":38.732,"lng":-77.572,"address":"12655 Vint Hill Rd","phone":"8333232674","website":"https://adamscenter.org/support-gainesville","has_prayer_times":true,"prayer_url":"https://raw.githubusercontent.com/ahmednabulsi/weekly-scraper/refs/heads/main/prayer-times/usa/Virginia/QL019nAZ/prayers.json"},{"id":"YAD4mwAN","name":"Masjid Ahlul Quran Wal Hadeeth","city":"Washington","state":"DC","country":"US","zip":"20018","lat":38.9249,"lng":-76.97,"address":"2711 26th St NE","phone":"(202) 768-8500","website":"-","has_prayer_times":true,"prayer_url":"https://raw.githubusercontent.com/ahmednabulsi/weekly-scraper/refs/heads/main/prayer-times/usa/DC/YAD4mwAN/prayers.json"},{"id":"4nL12jAa","name":"Dar Al-Noor","city":"Old Town Manassas","state":"VA","country":"US","zip":"20112","lat":38.6766,"lng":-77.3703,"address":"5404 Hoadly Rd","phone":"703-580-0808","website":"https://www.daralnoor.org/","has_prayer_times":true,"prayer_url":"https://raw.githubusercontent.com/ahmednabulsi/weekly-scraper/refs/heads/main/prayer-times/usa/VA/4nL12jAa/prayers.json"},{"id":"wLVOBBAJ","name":"Al Iman Islamic Center","city":"Lorton","state":"VA","country":"US","zip":"22079","lat":38.7007,"lng":-77.2115,"address":"9502 Richmond Hwy","phone":"(703) 688-3135","website":"https://alimanislamiccenter.org/","has_prayer_times":true,"prayer_url":"https://raw.githubusercontent.com/ahmednabulsi/weekly-scraper/refs/heads/main/prayer-times/usa/VA/wLVOBBAJ/prayers.json"},{"id":"x4KBg2L5","name":"Occoquan Masjid Al Hussain","city":"Occoquan Historic District","state":"Virginia","country":"US","zip":"22125","lat":38.6828,"lng":-77.2599,"address":"209 Washington St","phone":"-","website":"-","has_prayer_times":true,"prayer_url":"https://raw.githubusercontent.com/ahmednabulsi/weekly-scraper/refs/heads/main/prayer-times/usa/Virginia/x4KBg2L5/prayers.json"},{"id":"DAgpvDd0","name":"UMD Musalla","city":"College Park","state":"MD","country":"US","zip":"20740","lat":38.9879,"lng":-76.9458,"address":"2126 Campus Dr","phone":"-","website":"-","has_prayer_times":true,"prayer_url":"https://raw.githubusercontent.com/ahmednabulsi/weekly-scraper/refs/heads/main/prayer-times/usa/MD/DAgpvDd0/prayers.json"},{"id":"pPAPqXdJ","name":"Islamic Society of the Washington Area","city":"Silver Spring","state":"MD","country":"US","zip":"20905","lat":39.0859,"lng":-76.9548,"address":"2701 Briggs Chaney Rd","phone":"(301) 879-0930","website":"http://iswamd.org/","has_prayer_times":true,"prayer_url":"https://raw.githubusercontent.com/ahmednabulsi/weekly-scraper/refs/heads/main/prayer-times/usa/MD/pPAPqXdJ/prayers.json"},{"id":"QKMW22AB","name":"Madinatul Uloom","city":"Woodbridge","state":"Virginia","country":"US","zip":"22192","lat":38.6773,"lng":-77.2689,"address":"12750 Vantage View Ln","phone":"7032206397","website":"https://www.mtuva.com/","has_prayer_times":true,"prayer_url":"https://raw.githubusercontent.com/ahmednabulsi/weekly-scraper/refs/heads/main/prayer-times/usa/Virginia/QKMW22AB/prayers.json"},{"id":"VdwqQMLe","name":"Masjid Al Marzia","city":"Hyattsville","state":"MD","country":"US","zip":"20781","lat":38.9559,"lng":-76.9455,"address":"West","phone":"-","website":"-","has_prayer_times":true,"prayer_url":"https://raw.githubusercontent.com/ahmednabulsi/weekly-scraper/refs/heads/main/prayer-times/usa/MD/VdwqQMLe/prayers.json"},{"id":"6kK30pLe","name":"ICNA Virginia Masjid","city":"Alexandria","state":"VA","country":"US","zip":"22306","lat":38.7507,"lng":-77.0822,"address":"2913 Woodlawn Trail","phone":"703-660-1255","website":"https://icnava.org/","has_prayer_times":true,"prayer_url":"https://raw.githubusercontent.com/ahmednabulsi/weekly-scraper/refs/heads/main/prayer-times/usa/VA/6kK30pLe/prayers.json"},{"id":"nL1J28Aa","name":"Dar-us-Salaam","city":"College Park","state":"MD","country":"US","zip":"20740","lat":39.0012,"lng":-76.9317,"address":"5301 Edgewood Rd","phone":"301-982-9848","website":"https://darussalaam.org/","has_prayer_times":true,"prayer_url":"https://raw.githubusercontent.com/ahmednabulsi/weekly-scraper/refs/heads/main/prayer-times/usa/MD/nL1J28Aa/prayers.json"},{"id":"rGAEgnKn","name":"Woodbridge Faith Center","city":"Woodbridge","state":"VA","country":"US","zip":"22191","lat":38.6652,"lng":-77.2544,"address":"13195 Occoquan Rd","phone":"+1 (703) 798-5679","website":"http://woodbridgefaithcenter.org/","has_prayer_times":true,"prayer_url":"https://raw.githubusercontent.com/ahmednabulsi/weekly-scraper/refs/heads/main/prayer-times/usa/VA/rGAEgnKn/prayers.json"},{"id":"0kAkoEAq","name":"Haskay Community Masjid","city":"Woodbridge","state":"VA","country":"US","zip":"22193","lat":38.6439,"lng":-77.3378,"address":"4227 Dale Blvd","phone":"571-409-8668","website":"https://www.haskay.org/","has_prayer_times":true,"prayer_url":"https://raw.githubusercontent.com/ahmednabulsi/weekly-scraper/refs/heads/main/prayer-times/usa/VA/0kAkoEAq/prayers.json"},{"id":"jKZNJNKX","name":"Dar Al Salaam","city":"Woodbridge","state":"VA","country":"US","zip":"22191","lat":38.6374,"lng":-77.2682,"address":"14505 Richmond Hwy, unit 8","phone":"-","website":"-","has_prayer_times":true,"prayer_url":"https://raw.githubusercontent.com/ahmednabulsi/weekly-scraper/refs/heads/main/prayer-times/usa/VA/jKZNJNKX/prayers.json"},{"id":"xwLVRDLJ","name":"Islamic Community Center of Laurel","city":"Laurel","state":"MD","country":"US","zip":"20707","lat":39.0806,"lng":-76.88,"address":"7306 Contee Rd","phone":"(301) 317-4584","website":"https://icclmd.org/","has_prayer_times":true,"prayer_url":"https://raw.githubusercontent.com/ahmednabulsi/weekly-scraper/refs/heads/main/prayer-times/usa/MD/xwLVRDLJ/prayers.json"},{"id":"GA6arrLe","name":"Sierra Leone Muslim Jamaat","city":"Hyattsville","state":"MD","country":"US","zip":"20785","lat":38.9313,"lng":-76.8757,"address":"3305 Hubbard Rd","phone":"-","website":"-","has_prayer_times":true,"prayer_url":"https://raw.githubusercontent.com/ahmednabulsi/weekly-scraper/refs/heads/main/prayer-times/usa/MD/GA6arrLe/prayers.json"},{"id":"RKxwERdO","name":"Masjid-Al-Hikma","city":"Fort Washington","state":"MD","country":"US","zip":"20744","lat":38.7377,"lng":-76.9938,"address":"11052 Cornett St","phone":"-","website":"-","has_prayer_times":true,"prayer_url":"https://raw.githubusercontent.com/ahmednabulsi/weekly-scraper/refs/heads/main/prayer-times/usa/MD/RKxwERdO/prayers.json"},{"id":"wAa3W3K1","name":"Masjid Ibn Taymiyyah","city":"Glenarden","state":"MD","country":"US","zip":"20706","lat":38.9323,"lng":-76.8689,"address":"8000 Martin Luther King Jr Hwy","phone":"-","website":"-","has_prayer_times":true,"prayer_url":"https://raw.githubusercontent.com/ahmednabulsi/weekly-scraper/refs/heads/main/prayer-times/usa/MD/wAa3W3K1/prayers.json"},{"id":"pVdwzmAe","name":"Prince George's Muslim Association","city":"Lanham","state":"MD","country":"US","zip":"20706","lat":38.9675,"lng":-76.8563,"address":"9150 Lanham Severn Rd","phone":"-","website":"http://pgmamd.org/","has_prayer_times":true,"prayer_url":"https://raw.githubusercontent.com/ahmednabulsi/weekly-scraper/refs/heads/main/prayer-times/usa/MD/pVdwzmAe/prayers.json"},{"id":"DAgvjDL0","name":"Diyanet Center of America","city":"Lanham","state":"MD","country":"US","zip":"20706","lat":38.9828,"lng":-76.8444,"address":"9610 Good Luck Rd","phone":"301-459-9589","website":"https://diyanetamerica.org/","has_prayer_times":true,"prayer_url":"https://raw.githubusercontent.com/ahmednabulsi/weekly-scraper/refs/heads/main/prayer-times/usa/MD/DAgvjDL0/prayers.json"},{"id":"3OA8pOAp","name":"Islamic Society of Frederick","city":"Frederick","state":"MD","country":"US","zip":"21702","lat":39.4213,"lng":-77.4523,"address":"1250 Key Pkwy","phone":"301-682-5090","website":"https://isfmd.org/","has_prayer_times":true,"prayer_url":"https://raw.githubusercontent.com/ahmednabulsi/weekly-scraper/refs/heads/main/prayer-times/usa/MD/3OA8pOAp/prayers.json"},{"id":"DAgwjWA0","name":"Muhammad Ibn Abdul Wahhab","city":"Camden","state":"New Jersey","country":"US","zip":"08103","lat":39.9359,"lng":-75.1094,"address":"1032 Spruce St","phone":"-","website":"-","has_prayer_times":true,"prayer_url":"https://raw.githubusercontent.com/ahmednabulsi/weekly-scraper/refs/heads/main/prayer-times/usa/New Jersey/DAgwjWA0/prayers.json"},{"id":"rdRGkvKG","name":"The Quba School and Islamic Center","city":"Camden","state":"NJ","country":"US","zip":"08103","lat":39.9312,"lng":-75.1017,"address":"1311 Haddon Ave","phone":"-","website":"-","has_prayer_times":true,"prayer_url":"https://raw.githubusercontent.com/ahmednabulsi/weekly-scraper/refs/heads/main/prayer-times/usa/NJ/rdRGkvKG/prayers.json"},{"id":"XAlz78Kb","name":"Burmese Rohingya Community","city":"Philadelphia","state":"PA","country":"US","zip":"19148","lat":39.9182,"lng":-75.1594,"address":"2444 S 7th St","phone":"-","website":"-","has_prayer_times":true,"prayer_url":"https://raw.githubusercontent.com/ahmednabulsi/weekly-scraper/refs/heads/main/prayer-times/usa/PA/XAlz78Kb/prayers.json"},{"id":"0Lbk9NAo","name":"Center City Mosque","city":"Philadelphia","state":"PA","country":"US","zip":"19107","lat":39.949,"lng":-75.1634,"address":"1328 Walnut St","phone":"-","website":"https://centercitymosque.org/","has_prayer_times":true,"prayer_url":"https://raw.githubusercontent.com/ahmednabulsi/weekly-scraper/refs/heads/main/prayer-times/usa/PA/0Lbk9NAo/prayers.json"},{"id":"8L7kzEL5","name":"United Muslim Masjid","city":"Philadelphia","state":"PA","country":"US","zip":"19146","lat":39.9407,"lng":-75.1681,"address":"810 S 15th St","phone":"(215)546-6555","website":"https://www.ummonline.org","has_prayer_times":true,"prayer_url":"https://raw.githubusercontent.com/ahmednabulsi/weekly-scraper/refs/heads/main/prayer-times/usa/PA/8L7kzEL5/prayers.json"},{"id":"yLjOZDAQ","name":"Masjid Ibn Taymiyyah Philadelphia Inc.","city":"Philadelphia","state":"PA","country":"US","zip":"19122","lat":39.9716,"lng":-75.1464,"address":"1238 N 6th St","phone":"-","website":"-","has_prayer_times":true,"prayer_url":"https://raw.githubusercontent.com/ahmednabulsi/weekly-scraper/refs/heads/main/prayer-times/usa/PA/yLjOZDAQ/prayers.json"},{"id":"rdRyQ3AG","name":"Masjid Ibn Baaz","city":"Philadelphia","state":"Pennsylvania","country":"US","zip":"19145","lat":39.9302,"lng":-75.1834,"address":"1741 Point Breeze Ave","phone":"-","website":"-","has_prayer_times":true,"prayer_url":"https://raw.githubusercontent.com/ahmednabulsi/weekly-scraper/refs/heads/main/prayer-times/usa/Pennsylvania/rdRyQ3AG/prayers.json"},{"id":"GAE9jNAn","name":"Noor Albayan ILC","city":"Bellmawr","state":"NJ","country":"US","zip":"08031","lat":39.8669,"lng":-75.0754,"address":"20 Braisington Ave","phone":"8562272797","website":"-","has_prayer_times":true,"prayer_url":"https://raw.githubusercontent.com/ahmednabulsi/weekly-scraper/refs/heads/main/prayer-times/usa/NJ/GAE9jNAn/prayers.json"},{"id":"GAEXepLn","name":"Omar Al farook","city":"Philadelphia","state":"Pennsylvania","country":"US","zip":"19124","lat":40.0105,"lng":-75.0797,"address":"2036 Orthodox St","phone":"2159877884","website":"-","has_prayer_times":true,"prayer_url":"https://raw.githubusercontent.com/ahmednabulsi/weekly-scraper/refs/heads/main/prayer-times/usa/Pennsylvania/GAEXepLn/prayers.json"},{"id":"jKZpwRAX","name":"WICC","city":"Woodbury","state":"NJ","country":"US","zip":"08096","lat":39.8583,"lng":-75.1422,"address":"1420 Pilgrim Ave","phone":"-","website":"-","has_prayer_times":true,"prayer_url":"https://raw.githubusercontent.com/ahmednabulsi/weekly-scraper/refs/heads/main/prayer-times/usa/NJ/jKZpwRAX/prayers.json"},{"id":"DAgvDWL0","name":"Masjid Al Jamia","city":"Philadelphia","state":"Pennsylvania","country":"US","zip":"19104","lat":39.9546,"lng":-75.2084,"address":"4228 Walnut St","phone":"267-275-8087","website":"-","has_prayer_times":true,"prayer_url":"https://raw.githubusercontent.com/ahmednabulsi/weekly-scraper/refs/heads/main/prayer-times/usa/Pennsylvania/DAgvDWL0/prayers.json"},{"id":"QL0BkndZ","name":"Imam Muslim Family Center","city":"Philadelphia","state":"PA","country":"US","zip":"19104","lat":39.9648,"lng":-75.2047,"address":"4075 Lancaster Ave","phone":"267-219-8090","website":"-","has_prayer_times":true,"prayer_url":"https://raw.githubusercontent.com/ahmednabulsi/weekly-scraper/refs/heads/main/prayer-times/usa/PA/QL0BkndZ/prayers.json"},{"id":"wdqDl3Ab","name":"Masjid Salaam Philadelphia","city":"Philadelphia","state":"Pennsylvania","country":"US","zip":"19104","lat":39.9741,"lng":-75.2068,"address":"4103 W Girard Ave","phone":"-","website":"-","has_prayer_times":true,"prayer_url":"https://raw.githubusercontent.com/ahmednabulsi/weekly-scraper/refs/heads/main/prayer-times/usa/Pennsylvania/wdqDl3Ab/prayers.json"},{"id":"0Lb7y7Ao","name":"MASJID ALAMIN","city":"Philadelphia","state":"Pennsylvania","country":"US","zip":"19143","lat":39.9292,"lng":-75.2198,"address":"5722 Elmwood Ave","phone":"-","website":"-","has_prayer_times":true,"prayer_url":"https://raw.githubusercontent.com/ahmednabulsi/weekly-scraper/refs/heads/main/prayer-times/usa/Pennsylvania/0Lb7y7Ao/prayers.json"},{"id":"JdGOr7dP","name":"Markazul Quran","city":"Philadelphia","state":"Pennsylvania","country":"US","zip":"19143","lat":39.948,"lng":-75.2219,"address":"4912 Baltimore Ave","phone":"2679106830","website":"-","has_prayer_times":true,"prayer_url":"https://raw.githubusercontent.com/ahmednabulsi/weekly-scraper/refs/heads/main/prayer-times/usa/Pennsylvania/JdGOr7dP/prayers.json"},{"id":"nL1J3VAa","name":"The Philadelphia Masjid","city":"Philadelphia","state":"PA","country":"US","zip":"19131","lat":39.9702,"lng":-75.2162,"address":"4700 Wyalusing Ave","phone":"-","website":"-","has_prayer_times":true,"prayer_url":"https://raw.githubusercontent.com/ahmednabulsi/weekly-scraper/refs/heads/main/prayer-times/usa/PA/nL1J3VAa/prayers.json"},{"id":"8L7jmlK5","name":"Masjid Ahlus-Sunnah Wal-Jammah","city":"Philadelphia","state":"PA","country":"US","zip":"19142","lat":39.9248,"lng":-75.2292,"address":"2400 S 63rd St","phone":"-","website":"-","has_prayer_times":true,"prayer_url":"https://raw.githubusercontent.com/ahmednabulsi/weekly-scraper/refs/heads/main/prayer-times/usa/PA/8L7jmlK5/prayers.json"},{"id":"wdqvGZKb","name":"ICSJ - Islamic Center of South Jersey","city":"Palmyra","state":"NJ","country":"US","zip":"08065","lat":40.004,"lng":-75.0201,"address":"612 Garfield Ave","phone":"-","website":"https://www.icsjmasjid.org/","has_prayer_times":true,"prayer_url":"https://raw.githubusercontent.com/ahmednabulsi/weekly-scraper/refs/heads/main/prayer-times/usa/NJ/wdqvGZKb/prayers.json"},{"id":"QL033QKZ","name":"Masjid Freehaven","city":"Lawnside","state":"New Jersey","country":"US","zip":"08045","lat":39.8612,"lng":-75.0231,"address":"280 Ashland Ave","phone":"-","website":"-","has_prayer_times":true,"prayer_url":"https://raw.githubusercontent.com/ahmednabulsi/weekly-scraper/refs/heads/main/prayer-times/usa/New Jersey/QL033QKZ/prayers.json"},{"id":"0Lb7rGAo","name":"Masjid Ibn Uthaymeen","city":"Philadelphia","state":"Pennsylvania","country":"US","zip":"19142","lat":39.9218,"lng":-75.2304,"address":"6502 Elmwood Ave","phone":"-","website":"-","has_prayer_times":true,"prayer_url":"https://raw.githubusercontent.com/ahmednabulsi/weekly-scraper/refs/heads/main/prayer-times/usa/Pennsylvania/0Lb7rGAo/prayers.json"},{"id":"nL1JvOAa","name":"Masjid Quran&Sunnah","city":"Philadelphia","state":"PA","country":"US","zip":"19142","lat":39.9284,"lng":-75.2322,"address":"2103 Cemetery Ave","phone":"-","website":"-","has_prayer_times":true,"prayer_url":"https://raw.githubusercontent.com/ahmednabulsi/weekly-scraper/refs/heads/main/prayer-times/usa/PA/nL1JvOAa/prayers.json"},{"id":"jKZNZ3KX","name":"West Philly Jameh Masjid Islamic Center","city":"Philadelphia","state":"PA","country":"US","zip":"19139","lat":39.9606,"lng":-75.228,"address":"5329 Market St","phone":"2672498470","website":"-","has_prayer_times":true,"prayer_url":"https://raw.githubusercontent.com/ahmednabulsi/weekly-scraper/refs/heads/main/prayer-times/usa/PA/jKZNZ3KX/prayers.json"},{"id":"GA6aWGLe","name":"Masjid Ar-Rahman Philly","city":"Philadelphia","state":"PA","country":"US","zip":"19142","lat":39.9125,"lng":-75.2298,"address":"6920 Ibis Pl","phone":"-","website":"-","has_prayer_times":true,"prayer_url":"https://raw.githubusercontent.com/ahmednabulsi/weekly-scraper/refs/heads/main/prayer-times/usa/PA/GA6aWGLe/prayers.json"},{"id":"8KXpaOKM","name":"BURMESE ROHINGYA COMMUNITY MASJID","city":"Philadelphia","state":"Pennsylvania","country":"US","zip":"19148","lat":40.0357,"lng":-75.0953,"address":"2445 S 7th street","phone":"1253971663","website":"-","has_prayer_times":true,"prayer_url":"https://raw.githubusercontent.com/ahmednabulsi/weekly-scraper/refs/heads/main/prayer-times/usa/Pennsylvania/8KXpaOKM/prayers.json"},{"id":"0AWpDydj","name":"Masjid Al-Wasatiyah","city":"Philadelphia","state":"Pennsylvania","country":"US","zip":"19143","lat":39.9443,"lng":-75.2376,"address":"5727 Hoffman Ave","phone":"2672508501","website":"-","has_prayer_times":true,"prayer_url":"https://raw.githubusercontent.com/ahmednabulsi/weekly-scraper/refs/heads/main/prayer-times/usa/Pennsylvania/0AWpDydj/prayers.json"},{"id":"Vdw30Mde","name":"Fouta Islamic Center of Philadelphia","city":"Philadelphia","state":"PA","country":"US","zip":"19142","lat":39.9158,"lng":-75.2379,"address":"2525-27 S 71st St","phone":"-","website":"-","has_prayer_times":true,"prayer_url":"https://raw.githubusercontent.com/ahmednabulsi/weekly-scraper/refs/heads/main/prayer-times/usa/PA/Vdw30Mde/prayers.json"},{"id":"XAlRZ4Kb","name":"GCLEA","city":"Cherry Hill Township","state":"New Jersey","country":"US","zip":"08003","lat":39.9138,"lng":-74.9686,"address":"5 Esterbrook Ln","phone":"-","website":"https://www.gclea.org/","has_prayer_times":true,"prayer_url":"https://raw.githubusercontent.com/ahmednabulsi/weekly-scraper/refs/heads/main/prayer-times/usa/New Jersey/XAlRZ4Kb/prayers.json"},{"id":"XAllJ4Ab","name":"Masjid Al Muhsineen","city":"Philadelphia","state":"Pennsylvania","country":"US","zip":"19141","lat":40.041,"lng":-75.1446,"address":"5736 Old York Rd","phone":"-","website":"-","has_prayer_times":true,"prayer_url":"https://raw.githubusercontent.com/ahmednabulsi/weekly-scraper/refs/heads/main/prayer-times/usa/Pennsylvania/XAllJ4Ab/prayers.json"},{"id":"adJE2yAk","name":"ALFURQAN","city":"Philadelphia","state":"Pennsylvania","country":"US","zip":"19149","lat":40.0443,"lng":-75.0556,"address":"7252 Roosevelt Blvd","phone":"571516411","website":"-","has_prayer_times":true,"prayer_url":"https://raw.githubusercontent.com/ahmednabulsi/weekly-scraper/refs/heads/main/prayer-times/usa/Pennsylvania/adJE2yAk/prayers.json"},{"id":"OA8aMbdp","name":"Al-Andalus","city":"Philadelphia","state":"Pennsylvania","country":"US","zip":"19111","lat":40.0511,"lng":-75.0946,"address":"6440-42 Rising Sun Ave","phone":"-","website":"-","has_prayer_times":true,"prayer_url":"https://raw.githubusercontent.com/ahmednabulsi/weekly-scraper/refs/heads/main/prayer-times/usa/Pennsylvania/OA8aMbdp/prayers.json"},{"id":"8K9qJ7Kp","name":"Masjid Taqwa Islamic Center","city":"Philadelphia","state":"Pennsylvania","country":"US","zip":"19136","lat":40.0412,"lng":-75.0293,"address":"7918 Frankford Ave","phone":"-","website":"-","has_prayer_times":true,"prayer_url":"https://raw.githubusercontent.com/ahmednabulsi/weekly-scraper/refs/heads/main/prayer-times/usa/Pennsylvania/8K9qJ7Kp/prayers.json"},{"id":"YADlxbAN","name":"Al Madinah Islamic Academy","city":"Upper Darby","state":"PA","country":"US","zip":"19082","lat":39.9595,"lng":-75.2643,"address":"148 Garrett Road","phone":"484-207-0404","website":"http://www.amiacademy.org","has_prayer_times":true,"prayer_url":"https://raw.githubusercontent.com/ahmednabulsi/weekly-scraper/refs/heads/main/prayer-times/usa/PA/YADlxbAN/prayers.json"},{"id":"rdRvlDdG","name":"Alrashideen Islamic Center","city":"Philadelphia","state":"PA","country":"US","zip":"19114","lat":40.0738,"lng":-75.0324,"address":"9229 E Roosevelt Blvd","phone":"215.850.3031","website":"https://www.alrashideenislamiccenter.com/","has_prayer_times":true,"prayer_url":"https://raw.githubusercontent.com/ahmednabulsi/weekly-scraper/refs/heads/main/prayer-times/usa/PA/rdRvlDdG/prayers.json"},{"id":"MA5qbzAr","name":"Islamic center of Delaware county","city":"Drexel Hill","state":"Pennsylvania","country":"US","zip":"19026","lat":39.966,"lng":-75.2994,"address":"2502 Township Line Rd","phone":"-","website":"-","has_prayer_times":true,"prayer_url":"https://raw.githubusercontent.com/ahmednabulsi/weekly-scraper/refs/heads/main/prayer-times/usa/Pennsylvania/MA5qbzAr/prayers.json"},{"id":"wdqDaeAb","name":"Al Manar Masjid","city":"Gloucester Township","state":"NJ","country":"US","zip":"08012","lat":39.7846,"lng":-75.0548,"address":"1125 S Black Horse Pike","phone":"8562379358","website":"-","has_prayer_times":true,"prayer_url":"https://raw.githubusercontent.com/ahmednabulsi/weekly-scraper/refs/heads/main/prayer-times/usa/NJ/wdqDaeAb/prayers.json"},{"id":"OLnD25dM","name":"MCSJ - Masjid As-Salaam","city":"Pine Hill","state":"New Jersey","country":"US","zip":"08021","lat":39.7895,"lng":-74.9908,"address":"400 Erial Rd","phone":"-","website":"-","has_prayer_times":true,"prayer_url":"https://raw.githubusercontent.com/ahmednabulsi/weekly-scraper/refs/heads/main/prayer-times/usa/New Jersey/OLnD25dM/prayers.json"},{"id":"1VL4RBdx","name":"MACA","city":"Voorhees","state":"NJ","country":"US","zip":"08043","lat":39.8166,"lng":-74.9461,"address":"3 Lafayette ave","phone":"-","website":"https://macanj.org/","has_prayer_times":true,"prayer_url":"https://raw.githubusercontent.com/ahmednabulsi/weekly-scraper/refs/heads/main/prayer-times/usa/NJ/1VL4RBdx/prayers.json"},{"id":"Vdw3amde","name":"Muslim Youth Center Of Philadelphia (MYCP)","city":"Philadelphia","state":"PA","country":"US","zip":"19154","lat":40.083,"lng":-74.9755,"address":"11080 Knights Rd","phone":"(215) 437-9987","website":"https://www.msdvpa.org/","has_prayer_times":true,"prayer_url":"https://raw.githubusercontent.com/ahmednabulsi/weekly-scraper/refs/heads/main/prayer-times/usa/PA/Vdw3amde/prayers.json"},{"id":"0aAe0vLj","name":"Bensalem Jame Masjid","city":"Philadelphia","state":"Pennsylvania","country":"US","zip":"19154","lat":40.0916,"lng":-74.9784,"address":"3560 Woodhaven Rd","phone":"-","website":"-","has_prayer_times":true,"prayer_url":"https://raw.githubusercontent.com/ahmednabulsi/weekly-scraper/refs/heads/main/prayer-times/usa/Pennsylvania/0aAe0vLj/prayers.json"},{"id":"eLQe4yLM","name":"Willingboro Muslim Educational Circle Center","city":"Willingboro","state":"New Jersey","country":"US","zip":"08046","lat":40.0118,"lng":-74.8725,"address":"621 Beverly Rancocas Rd Suite 2D","phone":"6095348629","website":"https://wmecnj.org/","has_prayer_times":true,"prayer_url":"https://raw.githubusercontent.com/ahmednabulsi/weekly-scraper/refs/heads/main/prayer-times/usa/New Jersey/eLQe4yLM/prayers.json"},{"id":"QL01YaAZ","name":"Islamic Center of Chester","city":"Chester","state":"Pennsylvania","country":"US","zip":"19013","lat":39.8504,"lng":-75.3617,"address":"14 E 7th St","phone":"-","website":"-","has_prayer_times":true,"prayer_url":"https://raw.githubusercontent.com/ahmednabulsi/weekly-scraper/refs/heads/main/prayer-times/usa/Pennsylvania/QL01YaAZ/prayers.json"},{"id":"MjKZVmKX","name":"Islamic Cultural Center of Willow Grove","city":"Willow Grove","state":"PA","country":"US","zip":"19090","lat":40.149,"lng":-75.1203,"address":"502 Easton Rd","phone":"(215) 659-1123","website":"https://www.msdvpa.org/","has_prayer_times":true,"prayer_url":"https://raw.githubusercontent.com/ahmednabulsi/weekly-scraper/refs/heads/main/prayer-times/usa/PA/MjKZVmKX/prayers.json"},{"id":"zKz3D4LO","name":"Masjid Al Iman Pennsylvania","city":"Croydon","state":"Pennsylvania","country":"US","zip":"19021","lat":40.0874,"lng":-74.9035,"address":"","phone":"-","website":"-","has_prayer_times":true,"prayer_url":"https://raw.githubusercontent.com/ahmednabulsi/weekly-scraper/refs/heads/main/prayer-times/usa/Pennsylvania/zKz3D4LO/prayers.json"},{"id":"eLQ0okKM","name":"Masjid Al-Fajr","city":"Chester","state":"PA","country":"US","zip":"19013","lat":39.8401,"lng":-75.3704,"address":"2009 W 3rd St","phone":"-","website":"-","has_prayer_times":true,"prayer_url":"https://raw.githubusercontent.com/ahmednabulsi/weekly-scraper/refs/heads/main/prayer-times/usa/PA/eLQ0okKM/prayers.json"},{"id":"QL0MWQAZ","name":"Masjid As-Sabiqun","city":"Chester","state":"Pennsylvania","country":"US","zip":"19013","lat":39.8498,"lng":-75.3759,"address":"1105 Concord Ave","phone":"6104901970","website":"https://www.masjidas-sabiqun.org/","has_prayer_times":true,"prayer_url":"https://raw.githubusercontent.com/ahmednabulsi/weekly-scraper/refs/heads/main/prayer-times/usa/Pennsylvania/QL0MWQAZ/prayers.json"},{"id":"QL0M8GAZ","name":"Islamic Community of South Jersey","city":"Berlin","state":"NJ","country":"US","zip":"08009","lat":39.7608,"lng":-74.9159,"address":"402 Tansboro Rd","phone":"-","website":"-","has_prayer_times":true,"prayer_url":"https://raw.githubusercontent.com/ahmednabulsi/weekly-scraper/refs/heads/main/prayer-times/usa/NJ/QL0M8GAZ/prayers.json"},{"id":"nL1ZDVAa","name":"Selimiye Mosque","city":"Burlington","state":"New Jersey","country":"US","zip":"08016","lat":40.0617,"lng":-74.848,"address":"203 Fountain Ave","phone":"-","website":"-","has_prayer_times":true,"prayer_url":"https://raw.githubusercontent.com/ahmednabulsi/weekly-scraper/refs/heads/main/prayer-times/usa/New Jersey/nL1ZDVAa/prayers.json"},{"id":"b3AOwEAe","name":"Norristown Islamic Society","city":"Norristown","state":"PA","country":"US","zip":"19401","lat":40.1212,"lng":-75.341,"address":"5 W Elm St","phone":"-","website":"https://www.norristownislamicsociety.org/","has_prayer_times":true,"prayer_url":"https://raw.githubusercontent.com/ahmednabulsi/weekly-scraper/refs/heads/main/prayer-times/usa/PA/b3AOwEAe/prayers.json"},{"id":"VrdRzvdG","name":"ISGVF (Islamic Society of Greater Valley Forge)","city":"Devon","state":"PA","country":"US","zip":"19333","lat":40.0669,"lng":-75.434,"address":"958 N Valley Forge Rd","phone":"-","website":"https://www.isgvf.com","has_prayer_times":true,"prayer_url":"https://raw.githubusercontent.com/ahmednabulsi/weekly-scraper/refs/heads/main/prayer-times/usa/PA/VrdRzvdG/prayers.json"},{"id":"GAE9bYAn","name":"Masjid Shuhada","city":"Mount Holly","state":"New Jersey","country":"US","zip":"08060","lat":40.0136,"lng":-74.7325,"address":"2648 US-206","phone":"-","website":"-","has_prayer_times":true,"prayer_url":"https://raw.githubusercontent.com/ahmednabulsi/weekly-scraper/refs/heads/main/prayer-times/usa/New Jersey/GAE9bYAn/prayers.json"},{"id":"1QL03QKZ","name":"Al Medina Education Center","city":"Newark","state":"CA","country":"US","zip":"94560","lat":37.5382,"lng":-122.0284,"address":"5880 Thornton Ave","phone":"5105163621","website":"http://www.mec1.org/","has_prayer_times":true,"prayer_url":"https://raw.githubusercontent.com/ahmednabulsi/weekly-scraper/refs/heads/main/prayer-times/usa/CA/1QL03QKZ/prayers.json"},{"id":"pVdwoMde","name":"Islamic Center of Fremont","city":"Fremont","state":"CA","country":"US","zip":"94538","lat":37.5314,"lng":-121.9598,"address":"4039 Irvington Ave","phone":"-","website":"https://www.icfbayarea.com/","has_prayer_times":true,"prayer_url":"https://raw.githubusercontent.com/ahmednabulsi/weekly-scraper/refs/heads/main/prayer-times/usa/CA/pVdwoMde/prayers.json"},{"id":"JAmlxjLR","name":"Masjid Zakariya","city":"Fremont","state":"California","country":"US","zip":"94538","lat":37.5093,"lng":-121.9718,"address":"42412 Albrae St","phone":"-","website":"-","has_prayer_times":true,"prayer_url":"https://raw.githubusercontent.com/ahmednabulsi/weekly-scraper/refs/heads/main/prayer-times/usa/California/JAmlxjLR/prayers.json"},{"id":"3OA8mXdp","name":"Masjid al-Hudaa","city":"Union City","state":"CA","country":"US","zip":"94587","lat":37.5961,"lng":-122.0787,"address":"3880 Smith St","phone":"-","website":"-","has_prayer_times":true,"prayer_url":"https://raw.githubusercontent.com/ahmednabulsi/weekly-scraper/refs/heads/main/prayer-times/usa/CA/3OA8mXdp/prayers.json"},{"id":"0Lb7eVAo","name":"Masjid Furqaan Hayward","city":"Hayward","state":"California","country":"US","zip":"94541","lat":37.6684,"lng":-122.0911,"address":"492 C St","phone":"8775298520","website":"https://hayward.masjidfurqaan.org/","has_prayer_times":true,"prayer_url":"https://raw.githubusercontent.com/ahmednabulsi/weekly-scraper/refs/heads/main/prayer-times/usa/California/0Lb7eVAo/prayers.json"},{"id":"GA66qxAe","name":"MCC East Bay","city":"Pleasanton","state":"California","country":"US","zip":"94588","lat":37.6855,"lng":-121.8912,"address":"5724 W Las Positas Blvd","phone":"-","website":"https://mcceastbay.org","has_prayer_times":true,"prayer_url":"https://raw.githubusercontent.com/ahmednabulsi/weekly-scraper/refs/heads/main/prayer-times/usa/California/GA66qxAe/prayers.json"},{"id":"0xdyDnAX","name":"Muslim Community Center of East Bay","city":"Pleasanton","state":"CA","country":"US","zip":"94588","lat":37.6855,"lng":-121.8911,"address":"5724 W Las Positas Blvd","phone":"(925) 485-1786","website":"https://mcceastbay.org/","has_prayer_times":true,"prayer_url":"https://raw.githubusercontent.com/ahmednabulsi/weekly-scraper/refs/heads/main/prayer-times/usa/CA/0xdyDnAX/prayers.json"},{"id":"Vdwq2zLe","name":"Iman Center Palo Alto","city":"Palo Alto","state":"CA","country":"US","zip":"94306","lat":37.4278,"lng":-122.1453,"address":"366 Cambridge Ave","phone":"(650) 308 - 4428","website":"-","has_prayer_times":true,"prayer_url":"https://raw.githubusercontent.com/ahmednabulsi/weekly-scraper/refs/heads/main/prayer-times/usa/CA/Vdwq2zLe/prayers.json"},{"id":"nDAg1BK0","name":"South Bay Islamic Association","city":"San Jose","state":"CA","country":"US","zip":"95131","lat":37.4029,"lng":-121.9053,"address":"2345 Harris Way","phone":"(408) 526-0786","website":"https://sbia.info","has_prayer_times":true,"prayer_url":"https://raw.githubusercontent.com/ahmednabulsi/weekly-scraper/refs/heads/main/prayer-times/usa/CA/nDAg1BK0/prayers.json"},{"id":"vOLn92KM","name":"Muslim Community Association","city":"Santa Clara","state":"California","country":"US","zip":"95054","lat":37.3769,"lng":-121.9595,"address":"3003 Scott Blvd","phone":"(408) 727-7277","website":"https://mcabayarea.org","has_prayer_times":true,"prayer_url":"https://raw.githubusercontent.com/ahmednabulsi/weekly-scraper/refs/heads/main/prayer-times/usa/California/vOLn92KM/prayers.json"},{"id":"E5Av2wAX","name":"Masjid Al-Noor (MCA)","city":"Santa Clara","state":"CA","country":"US","zip":"95050","lat":37.3503,"lng":-121.9554,"address":"1755 Catherine St","phone":"(408) 727-7277","website":"https://www.mcabayarea.org","has_prayer_times":true,"prayer_url":"https://raw.githubusercontent.com/ahmednabulsi/weekly-scraper/refs/heads/main/prayer-times/usa/CA/E5Av2wAX/prayers.json"},{"id":"xwLVbkLJ","name":"Yaseen Belmont Masjid","city":"Belmont","state":"California","country":"US","zip":"94002","lat":37.5227,"lng":-122.2744,"address":"621 Masonic Way","phone":"-","website":"https://www.yaseen.org/","has_prayer_times":true,"prayer_url":"https://raw.githubusercontent.com/ahmednabulsi/weekly-scraper/refs/heads/main/prayer-times/usa/California/xwLVbkLJ/prayers.json"},{"id":"0aAepwLj","name":"San Ramon Valley Islamic Center","city":"San Ramon","state":"CA","country":"US","zip":"94583","lat":37.7768,"lng":-121.9692,"address":"2232 Camino Ramon","phone":"9254809611","website":"https://www.srvic.org/","has_prayer_times":true,"prayer_url":"https://raw.githubusercontent.com/ahmednabulsi/weekly-scraper/refs/heads/main/prayer-times/usa/CA/0aAepwLj/prayers.json"},{"id":"3AOVl3Le","name":"Islamic Center Of Livermore","city":"Livermore","state":"CA","country":"US","zip":"94550","lat":37.6804,"lng":-121.7548,"address":"3820 East Ave","phone":"-","website":"-","has_prayer_times":true,"prayer_url":"https://raw.githubusercontent.com/ahmednabulsi/weekly-scraper/refs/heads/main/prayer-times/usa/CA/3AOVl3Le/prayers.json"},{"id":"QL034yKZ","name":"Masjid Al-Saleh","city":"Oakland","state":"California","country":"US","zip":"94621","lat":37.7568,"lng":-122.1755,"address":"1669 83rd Ave","phone":"-","website":"-","has_prayer_times":true,"prayer_url":"https://raw.githubusercontent.com/ahmednabulsi/weekly-scraper/refs/heads/main/prayer-times/usa/California/QL034yKZ/prayers.json"},{"id":"0LbkGaAo","name":"Masjid Ul Haqq","city":"San Mateo","state":"California","country":"US","zip":"94401","lat":37.5711,"lng":-122.329,"address":"228 N Ellsworth Ave","phone":"-","website":"-","has_prayer_times":true,"prayer_url":"https://raw.githubusercontent.com/ahmednabulsi/weekly-scraper/refs/heads/main/prayer-times/usa/California/0LbkGaAo/prayers.json"},{"id":"MA5qJNAr","name":"Wahadah International","city":"Oakland","state":"California","country":"US","zip":"94601","lat":37.77,"lng":-122.2091,"address":"4820 International Blvd","phone":"-","website":"https://icabayarea.org/","has_prayer_times":true,"prayer_url":"https://raw.githubusercontent.com/ahmednabulsi/weekly-scraper/refs/heads/main/prayer-times/usa/California/MA5qJNAr/prayers.json"},{"id":"M0dYb7K6","name":"West Valley Muslim Association","city":"Saratoga","state":"CA","country":"US","zip":"95070","lat":37.2886,"lng":-122.032,"address":"12370 Saratoga Sunnyvale Rd","phone":"-","website":"https://www.wvmuslim.org/","has_prayer_times":true,"prayer_url":"https://raw.githubusercontent.com/ahmednabulsi/weekly-scraper/refs/heads/main/prayer-times/usa/CA/M0dYb7K6/prayers.json"},{"id":"VKpD9bKP","name":"Masjidul Waritheen","city":"Oakland","state":"CA","country":"US","zip":"94601","lat":37.7725,"lng":-122.2089,"address":"1700 47th Ave","phone":"5104367755","website":"http://www.masjidulwaritheen.org","has_prayer_times":true,"prayer_url":"https://raw.githubusercontent.com/ahmednabulsi/weekly-scraper/refs/heads/main/prayer-times/usa/CA/VKpD9bKP/prayers.json"},{"id":"QL01NGAZ","name":"Evergreen Islamic center","city":"San Jose","state":"California","country":"US","zip":"95148","lat":37.3404,"lng":-121.7852,"address":"2486 Ruby Ave","phone":"-","website":"https://www.eicsanjose.org/wp/","has_prayer_times":true,"prayer_url":"https://raw.githubusercontent.com/ahmednabulsi/weekly-scraper/refs/heads/main/prayer-times/usa/California/QL01NGAZ/prayers.json"},{"id":"0AWO20Aj","name":"Yaseen Burlingame Center","city":"Burlingame","state":"California","country":"US","zip":"94010","lat":37.5993,"lng":-122.3741,"address":"1722 Gilbreth Rd","phone":"-","website":"https://www.yaseen.org/","has_prayer_times":true,"prayer_url":"https://raw.githubusercontent.com/ahmednabulsi/weekly-scraper/refs/heads/main/prayer-times/usa/California/0AWO20Aj/prayers.json"},{"id":"DAgwQ1A0","name":"Islamic Center of Alameda","city":"Alameda","state":"California","country":"US","zip":"94501","lat":37.7734,"lng":-122.2702,"address":"901 Santa Clara Ave","phone":"5107489052","website":"https://icabayarea.org/","has_prayer_times":true,"prayer_url":"https://raw.githubusercontent.com/ahmednabulsi/weekly-scraper/refs/heads/main/prayer-times/usa/California/DAgwQ1A0/prayers.json"},{"id":"JdGONzdP","name":"Quba masjid","city":"Alameda","state":"California","country":"US","zip":"94501","lat":37.7744,"lng":-122.2763,"address":"707 Haight Ave","phone":"-","website":"-","has_prayer_times":true,"prayer_url":"https://raw.githubusercontent.com/ahmednabulsi/weekly-scraper/refs/heads/main/prayer-times/usa/California/JdGONzdP/prayers.json"},{"id":"0kAkqQKq","name":"\u0645\u0631\u0643\u0632 \u0623\u0648\u0643\u0644\u0627\u0646\u062f \u0627\u0644\u0625\u0633\u0644\u0627\u0645\u064a    Oakland Islamic Center","city":"Oakland","state":"CA","country":"US","zip":"94609","lat":37.8198,"lng":-122.2677,"address":"515 31st St","phone":"510 808-5284","website":"-","has_prayer_times":true,"prayer_url":"https://raw.githubusercontent.com/ahmednabulsi/weekly-scraper/refs/heads/main/prayer-times/usa/CA/0kAkqQKq/prayers.json"},{"id":"YADlvlAN","name":"Silver Creek Muslim Community Center","city":"San Jose","state":"CA","country":"US","zip":"95138","lat":37.2582,"lng":-121.7848,"address":"5978 Silver Creek Valley Rd","phone":"-","website":"http://www.musallas.org","has_prayer_times":true,"prayer_url":"https://raw.githubusercontent.com/ahmednabulsi/weekly-scraper/refs/heads/main/prayer-times/usa/CA/YADlvlAN/prayers.json"},{"id":"3AOVmaLe","name":"Blossom Valley Muslim Community Center","city":"San Jose","state":"California","country":"US","zip":"95123","lat":37.2359,"lng":-121.8318,"address":"5885 Santa Teresa Blvd","phone":"-","website":"https://www.bvmcc.org/","has_prayer_times":true,"prayer_url":"https://raw.githubusercontent.com/ahmednabulsi/weekly-scraper/refs/heads/main/prayer-times/usa/California/3AOVmaLe/prayers.json"},{"id":"nzKz7bLO","name":"Islamic Center of San Francisco","city":"San Francisco","state":"CA","country":"US","zip":"94110","lat":37.7347,"lng":-122.4167,"address":"400 Crescent Ave","phone":"-","website":"https://www.icofsf.org/","has_prayer_times":true,"prayer_url":"https://raw.githubusercontent.com/ahmednabulsi/weekly-scraper/refs/heads/main/prayer-times/usa/CA/nzKz7bLO/prayers.json"},{"id":"DAgvreL0","name":"MH Musalla","city":"Mountain House","state":"CA","country":"US","zip":"95391","lat":37.7723,"lng":-121.5521,"address":"620 S Escuela Dr","phone":"-","website":"-","has_prayer_times":true,"prayer_url":"https://raw.githubusercontent.com/ahmednabulsi/weekly-scraper/refs/heads/main/prayer-times/usa/CA/DAgvreL0/prayers.json"},{"id":"OA8nNOKp","name":"MHMA","city":"Mountain House","state":"California","country":"US","zip":"95391","lat":37.7787,"lng":-121.5405,"address":"250 E Main St","phone":"5597576462","website":"https://mhma.us","has_prayer_times":true,"prayer_url":"https://raw.githubusercontent.com/ahmednabulsi/weekly-scraper/refs/heads/main/prayer-times/usa/California/OA8nNOKp/prayers.json"},{"id":"0dYePld6","name":"Brooklyn Broadway Jame Mosque and Islamic Center","city":"Brooklyn","state":"New York","country":"US","zip":"11221","lat":40.6891,"lng":-73.9243,"address":"986 Gates Ave","phone":"6466426204","website":"-","has_prayer_times":true,"prayer_url":"https://raw.githubusercontent.com/ahmednabulsi/weekly-scraper/refs/heads/main/prayer-times/usa/New York/0dYePld6/prayers.json"},{"id":"QKMWv0AB","name":"Futa Islamic Center","city":"Brooklyn","state":"New York","country":"US","zip":"11226","lat":40.6435,"lng":-73.959,"address":"2020 Cortelyou Rd Basement","phone":"-","website":"-","has_prayer_times":true,"prayer_url":"https://raw.githubusercontent.com/ahmednabulsi/weekly-scraper/refs/heads/main/prayer-times/usa/New York/QKMWv0AB/prayers.json"},{"id":"YRKxO5dO","name":"Masjid Umm Ul Qura","city":"Brooklyn","state":"NY","country":"US","zip":"11218","lat":40.6419,"lng":-73.9698,"address":"632 Coney Island Ave","phone":"-","website":"-","has_prayer_times":true,"prayer_url":"https://raw.githubusercontent.com/ahmednabulsi/weekly-scraper/refs/heads/main/prayer-times/usa/NY/YRKxO5dO/prayers.json"},{"id":"0AWOa1Aj","name":"JAMIAH DARUS SUNNAH","city":"BROOKLYN","state":"NY","country":"US","zip":"11218-5213","lat":40.6392,"lng":-73.9694,"address":"913 CORTELYOU RD","phone":"-","website":"-","has_prayer_times":true,"prayer_url":"https://raw.githubusercontent.com/ahmednabulsi/weekly-scraper/refs/heads/main/prayer-times/usa/NY/0AWOa1Aj/prayers.json"},{"id":"yLjO6kAQ","name":"Masjid and Islamic center of Ridgewood","city":"Queens","state":"New York","country":"US","zip":"11385","lat":40.6957,"lng":-73.9039,"address":"10-19 Wyckoff Ave","phone":"9173730267","website":"http://www.ridgewoodmosque.org","has_prayer_times":true,"prayer_url":"https://raw.githubusercontent.com/ahmednabulsi/weekly-scraper/refs/heads/main/prayer-times/usa/New York/yLjO6kAQ/prayers.json"},{"id":"aAeo5oKj","name":"Masjid e Quba Brooklyn","city":"Brooklyn","state":"NY","country":"US","zip":"11230","lat":40.6338,"lng":-73.9642,"address":"1323 Foster Ave","phone":"-","website":"https://www.facebook.com/MasjidQubaNY/","has_prayer_times":true,"prayer_url":"https://raw.githubusercontent.com/ahmednabulsi/weekly-scraper/refs/heads/main/prayer-times/usa/NY/aAeo5oKj/prayers.json"},{"id":"jpArGJdb","name":"Jamia Muhammadia Rizwia","city":"Brooklyn","state":"New York","country":"US","zip":"11219","lat":40.6446,"lng":-73.9947,"address":"942 40th St","phone":"646 403 7950","website":"-","has_prayer_times":true,"prayer_url":"https://raw.githubusercontent.com/ahmednabulsi/weekly-scraper/refs/heads/main/prayer-times/usa/New York/jpArGJdb/prayers.json"},{"id":"kK3GOMKe","name":"Makki Masjid","city":"Brooklyn","state":"New York","country":"US","zip":"11230","lat":40.6311,"lng":-73.9661,"address":"1089 Coney Island Ave","phone":"7188594485","website":"-","has_prayer_times":true,"prayer_url":"https://raw.githubusercontent.com/ahmednabulsi/weekly-scraper/refs/heads/main/prayer-times/usa/New York/kK3GOMKe/prayers.json"},{"id":"yLjgjzAQ","name":"Aisha Islamic Center","city":"Brooklyn","state":"NY","country":"US","zip":"11234","lat":40.6289,"lng":-73.9306,"address":"1785 Schenectady Ave","phone":"347-247-0339","website":"https://aishacenter.org/","has_prayer_times":true,"prayer_url":"https://raw.githubusercontent.com/ahmednabulsi/weekly-scraper/refs/heads/main/prayer-times/usa/NY/yLjgjzAQ/prayers.json"},{"id":"XAlROWKb","name":"ABU BAKR EL SEDDIQUE MOSQUE","city":"Brooklyn","state":"NY","country":"US","zip":"11230","lat":40.6281,"lng":-73.9762,"address":"115 Foster Ave","phone":"-","website":"https://abu-bakr-el-seddique-mosque.edan.io/","has_prayer_times":true,"prayer_url":"https://raw.githubusercontent.com/ahmednabulsi/weekly-scraper/refs/heads/main/prayer-times/usa/NY/XAlROWKb/prayers.json"},{"id":"PAPy60dJ","name":"Masjid Bukhari","city":"Brooklyn","state":"NY","country":"US","zip":"11210","lat":40.6246,"lng":-73.9386,"address":"1863 Flatbush Ave","phone":"-","website":"-","has_prayer_times":true,"prayer_url":"https://raw.githubusercontent.com/ahmednabulsi/weekly-scraper/refs/heads/main/prayer-times/usa/NY/PAPy60dJ/prayers.json"},{"id":"3wdqYPdb","name":"Assafa","city":"New York","state":"NY","country":"US","zip":"10002","lat":40.7202,"lng":-73.9907,"address":"172 Eldridge St","phone":"2122531052","website":"http://assafaislamiccenter.org","has_prayer_times":true,"prayer_url":"https://raw.githubusercontent.com/ahmednabulsi/weekly-scraper/refs/heads/main/prayer-times/usa/NY/3wdqYPdb/prayers.json"},{"id":"wAa7weK1","name":"Alrahma Brooklyn","city":"Brooklyn","state":"New York","country":"US","zip":"11220","lat":40.6464,"lng":-74.0164,"address":"5202 3rd Ave","phone":"-","website":"-","has_prayer_times":true,"prayer_url":"https://raw.githubusercontent.com/ahmednabulsi/weekly-scraper/refs/heads/main/prayer-times/usa/New York/wAa7weK1/prayers.json"},{"id":"jpArk9db","name":"Darun Nusrah","city":"Brooklyn","state":"NY","country":"US","zip":"11220","lat":40.6464,"lng":-74.0164,"address":"5218 3rd Ave","phone":"-","website":"-","has_prayer_times":true,"prayer_url":"https://raw.githubusercontent.com/ahmednabulsi/weekly-scraper/refs/heads/main/prayer-times/usa/NY/jpArk9db/prayers.json"},{"id":"4KBvw6K5","name":"Al-Rahma Masjid","city":"Brooklyn","state":"NY","country":"US","zip":"11220","lat":40.6463,"lng":-74.0166,"address":"5224 3rd Ave","phone":"-","website":"-","has_prayer_times":true,"prayer_url":"https://raw.githubusercontent.com/ahmednabulsi/weekly-scraper/refs/heads/main/prayer-times/usa/NY/4KBvw6K5/prayers.json"},{"id":"JAml6kLR","name":"MCC Brooklyn","city":"Brooklyn","state":"New York","country":"US","zip":"11220","lat":40.6458,"lng":-74.0172,"address":"5320 3rd Ave","phone":"-","website":"https://mccbrooklyn.org/","has_prayer_times":true,"prayer_url":"https://raw.githubusercontent.com/ahmednabulsi/weekly-scraper/refs/heads/main/prayer-times/usa/New York/JAml6kLR/prayers.json"},{"id":"OLnmaQKM","name":"Fatih Mosque","city":"brooklyn","state":"New York","country":"US","zip":"11220","lat":40.6356,"lng":-74.0091,"address":"5911 8th Ave","phone":"7184386919","website":"https://fatihmosque.com/","has_prayer_times":true,"prayer_url":"https://raw.githubusercontent.com/ahmednabulsi/weekly-scraper/refs/heads/main/prayer-times/usa/New York/OLnmaQKM/prayers.json"},{"id":"OLnD30dM","name":"Brooklyn Islamic center","city":"Brooklyn","state":"New York","country":"US","zip":"11204","lat":40.6169,"lng":-73.9846,"address":"2015 64th St","phone":"-","website":"-","has_prayer_times":true,"prayer_url":"https://raw.githubusercontent.com/ahmednabulsi/weekly-scraper/refs/heads/main/prayer-times/usa/New York/OLnD30dM/prayers.json"},{"id":"GA66wGAe","name":"Siddique E Akbar Islamic Center","city":"Brooklyn","state":"NY","country":"US","zip":"11234-5037","lat":40.6123,"lng":-73.9258,"address":"2366 Flatbush Ave.","phone":"6463279089","website":"https://siddique-e-akbar-islamiccenter.com/","has_prayer_times":true,"prayer_url":"https://raw.githubusercontent.com/ahmednabulsi/weekly-scraper/refs/heads/main/prayer-times/usa/NY/GA66wGAe/prayers.json"},{"id":"QKM5V9KB","name":"IQRA masjid","city":"Brooklyn","state":"New York","country":"US","zip":"11204","lat":40.61,"lng":-73.9746,"address":"2483 65th St","phone":"-","website":"-","has_prayer_times":true,"prayer_url":"https://raw.githubusercontent.com/ahmednabulsi/weekly-scraper/refs/heads/main/prayer-times/usa/New York/QKM5V9KB/prayers.json"},{"id":"wAa3rxK1","name":"Masjid Maryam and Community Center of Bayridge Inc.","city":"Brooklyn","state":"New York","country":"US","zip":"11209","lat":40.6307,"lng":-74.0219,"address":"7307 5th Ave","phone":"9297759721","website":"-","has_prayer_times":true,"prayer_url":"https://raw.githubusercontent.com/ahmednabulsi/weekly-scraper/refs/heads/main/prayer-times/usa/New York/wAa3rxK1/prayers.json"},{"id":"YAD4ljAN","name":"Masjid Dar as-sunnah","city":"Brooklyn","state":"New York","country":"US","zip":"11220","lat":40.6361,"lng":-74.0277,"address":"232 Bay Ridge Ave","phone":"3472039593","website":"-","has_prayer_times":true,"prayer_url":"https://raw.githubusercontent.com/ahmednabulsi/weekly-scraper/refs/heads/main/prayer-times/usa/New York/YAD4ljAN/prayers.json"},